{
"type": "FeatureCollection",
"crs": { "type": "name", "properties": { "name": "urn:ogc:def:crs:OGC:1.3:CRS84" } },
                                                                                
"features": [
{ "type": "Feature", "properties": { "Country": "United States", "title": "Beaver", "image": "<img src='cascadia/images/NatGas/BeaverGeneratingStation.jpg'>", "text3": "Owner: Portland General Electric Co", "Operator": null, "Latitude": 46.172401, "Longitude": -123.173920, "City": "Clatskanie", "County": "Columbia", "StateProv": "Oregon", "ZipCode": "97016", "Address": "80997 Kallunki Rd", "text2": "Maximum output: 610.7 megawatts", "Renew_MW": 0, "text1": "Primary Source: Natural Gas", "PrimRenew": null, "Coal_MW": 0, "NG_MW": 610.7, "Crude_MW": 0, "Other_MW": 0, "Hydro_MW": 0, "HydroPS_MW": 0, "Nuclear_MW": 0, "Solar_MW": 0, "Wind_MW": 0, "Geo_MW": 0, "Bio_MW": 0, "Tidal_MW": 0, "Source": "https://www.flickr.com/photos/portlandgeneralelectric/5227666260/in/photostream/", "Period": 201705, "orig_ogc_f": 1 }, "geometry": { "type": "Point", "coordinates": [ -123.17392, 46.1724 ] } },

{ "type": "Feature", "properties": { "Country": "United States", "title": "Bennett Mountain", "image": "<img src='cascadia/images/NatGas/BennetMountain.jpg'>", "text3": "Owner: Idaho Power Co", "Operator": null, "Latitude": 43.147153, "Longitude": -115.666637, "City": "Mountain Home", "County": "Elmore", "StateProv": "Idaho", "ZipCode": "83647", "Address": "2750 NE Industrial Way", "text2": "Maximum output: 172.8 megawatts", "Renew_MW": 0, "text1": "Primary Source: Natural Gas", "PrimRenew": null, "Coal_MW": 0, "NG_MW": 172.8, "Crude_MW": 0, "Other_MW": 0, "Hydro_MW": 0, "HydroPS_MW": 0, "Nuclear_MW": 0, "Solar_MW": 0, "Wind_MW": 0, "Geo_MW": 0, "Bio_MW": 0, "Tidal_MW": 0, "Source": "https://www.siemens.com/press/en/presspicture/?press=/en/presspicture/2009/fossil_power_generation/efpg20070301-03.htm&content[]=EF&content[]=EP&content[]=PG", "Period": 201705, "orig_ogc_f": 2 }, "geometry": { "type": "Point", "coordinates": [ -115.66664, 43.14715 ] } },

{ "type": "Feature", "properties": { "Country": "United States", "title": "Carty Generating Station", "image": "<img src='cascadia/images/NatGas/CartyGeneratingStation.jpg'>", "text3": "Owner: Portland General Electric Co", "Operator": null, "Latitude": 45.698611, "Longitude": -119.813056, "City": "Boardman", "County": "Morrow", "StateProv": "Oregon", "ZipCode": "97818", "Address": "73396 Tower Road", "text2": "Maximum output: 500 megawatts", "Renew_MW": 0, "text1": "Primary Source: Natural Gas", "PrimRenew": null, "Coal_MW": 0, "NG_MW": 500, "Crude_MW": 0, "Other_MW": 0, "Hydro_MW": 0, "HydroPS_MW": 0, "Nuclear_MW": 0, "Solar_MW": 0, "Wind_MW": 0, "Geo_MW": 0, "Bio_MW": 0, "Tidal_MW": 0, "Source": "https://media.bizj.us/view/img/10284621/pge-carty-generating-station-in-service72916*1200xx1576-888-127-0.jpg", "Period": 201705, "orig_ogc_f": 11 }, "geometry": { "type": "Point", "coordinates": [ -119.81306, 45.69861 ] } },

{ "type": "Feature", "properties": { "Country": "United States", "title": "Chehalis Generating Facility", "image": "<img src='cascadia/images/NatGas/ChehalisGeneratingFacility.jpg'>", "text3": "Owner: PacifiCorp", "Operator": null, "Latitude": 46.622500, "Longitude": -122.913100, "City": "Chehalis", "County": "Lewis", "StateProv": "Washington", "ZipCode": "98532", "Address": "1813 Bishop Road", "text2": "Maximum output: 698 megawatts", "Renew_MW": 0, "text1": "Primary Source: Natural Gas", "PrimRenew": null, "Coal_MW": 0, "NG_MW": 698, "Crude_MW": 0, "Other_MW": 0, "Hydro_MW": 0, "HydroPS_MW": 0, "Nuclear_MW": 0, "Solar_MW": 0, "Wind_MW": 0, "Geo_MW": 0, "Bio_MW": 0, "Tidal_MW": 0, "Source": "EIA-860, EIA-860M and EIA-923", "Period": 201705, "orig_ogc_f": 12 }, "geometry": { "type": "Point", "coordinates": [ -122.9131, 46.6225 ] } },

{ "type": "Feature", "properties": { "Country": "United States", "title": "Coyote Springs", "image": "<img src='cascadia/images/NatGas/CoyoteSprings.jpg'>", "text3": "Owner: Portland General Electric Co", "Operator": null, "Latitude": 45.847998, "Longitude": -119.673920, "City": "Boardman", "County": "Morrow", "StateProv": "Oregon", "ZipCode": "97818", "Address": "200 Ullman Blvd", "text2": "Maximum output: 266.3 megawatts", "Renew_MW": 0, "text1": "Primary Source: Natural Gas", "PrimRenew": null, "Coal_MW": 0, "NG_MW": 266.3, "Crude_MW": 0, "Other_MW": 0, "Hydro_MW": 0, "HydroPS_MW": 0, "Nuclear_MW": 0, "Solar_MW": 0, "Wind_MW": 0, "Geo_MW": 0, "Bio_MW": 0, "Tidal_MW": 0, "Source": "EIA-860, EIA-860M and EIA-923", "Period": 201705, "orig_ogc_f": 16 }, "geometry": { "type": "Point", "coordinates": [ -119.67392, 45.848 ] } },

{ "type": "Feature", "properties": { "Country": "United States", "title": "Coyote Springs II", "image": "<img src='cascadia/images/NatGas/CoyoteSpringsII.jpg'>", "text3": "Owner: Avista Corp", "Operator": null, "Latitude": 45.848039, "Longitude": -119.673965, "City": "Boardman", "County": "Morrow", "StateProv": "Oregon", "ZipCode": "97818", "Address": "200 Ullman Blvd", "text2": "Maximum output: 287 megawatts", "Renew_MW": 0, "text1": "Primary Source: Natural Gas", "PrimRenew": null, "Coal_MW": 0, "NG_MW": 287, "Crude_MW": 0, "Other_MW": 0, "Hydro_MW": 0, "HydroPS_MW": 0, "Nuclear_MW": 0, "Solar_MW": 0, "Wind_MW": 0, "Geo_MW": 0, "Bio_MW": 0, "Tidal_MW": 0, "Source": "https://www.power-eng.com/articles/2016/07/major-upgrade-of-oregon-power-plant-completed.html", "Period": 201705, "orig_ogc_f": 17 }, "geometry": { "type": "Point", "coordinates": [ -119.67396, 45.84804 ] } },

{ "type": "Feature", "properties": { "Country": "United States", "title": "Dave Gates Generating Station", "image": "<img src='cascadia/images/NatGas/DaveGatesGeneratingStation.jpg'>", "text3": "Owner: NorthWestern Energy DGGS", "Operator": null, "Latitude": 46.104713, "Longitude": -112.876605, "City": "Anaconda", "County": "Deer Lodge", "StateProv": "Montana", "ZipCode": "59711", "Address": "Montana Highway", "text2": "Maximum output: 203.1 megawatts", "Renew_MW": 0, "text1": "Primary Source: Natural Gas", "PrimRenew": null, "Coal_MW": 0, "NG_MW": 203.1, "Crude_MW": 0, "Other_MW": 0, "Hydro_MW": 0, "HydroPS_MW": 0, "Nuclear_MW": 0, "Solar_MW": 0, "Wind_MW": 0, "Geo_MW": 0, "Bio_MW": 0, "Tidal_MW": 0, "Source": "EIA-860, EIA-860M and EIA-923", "Period": 201705, "orig_ogc_f": 18 }, "geometry": { "type": "Point", "coordinates": [ -112.8766, 46.10471 ] } },

{ "type": "Feature", "properties": { "Country": "United States", "title": "Encogen", "image": "<img src='cascadia/images/NatGas/Encogen.jpg'>", "text3": "Owner: Puget Sound Energy Inc", "Operator": null, "Latitude": 48.746000, "Longitude": -122.486000, "City": "Bellingham", "County": "Whatcom", "StateProv": "Washington", "ZipCode": "98225", "Address": "915 Cornwall Ave", "text2": "Maximum output: 176.4 megawatts", "Renew_MW": 0, "text1": "Primary Source: Natural Gas", "PrimRenew": null, "Coal_MW": 0, "NG_MW": 176.4, "Crude_MW": 0, "Other_MW": 0, "Hydro_MW": 0, "HydroPS_MW": 0, "Nuclear_MW": 0, "Solar_MW": 0, "Wind_MW": 0, "Geo_MW": 0, "Bio_MW": 0, "Tidal_MW": 0, "Source": "EIA-860, EIA-860M and EIA-923", "Period": 201705, "orig_ogc_f": 23 }, "geometry": { "type": "Point", "coordinates": [ -122.486, 48.746 ] } },

{ "type": "Feature", "properties": { "Country": "United States", "title": "Evander Andrews Danskin Power Plant", "image": "<img src='cascadia/images/NatGas/EvanderAndrewsDanskinPowerPlant.jpg'>", "text3": "Owner: Idaho Power Co", "Operator": null, "Latitude": 43.179176, "Longitude": -115.734315, "City": "Mountain Home", "County": "Elmore", "StateProv": "Idaho", "ZipCode": "83647", "Address": "1862 NW Mashburn Road", "text2": "Maximum output: 270.9 megawatts", "Renew_MW": 0, "text1": "Primary Source: Natural Gas", "PrimRenew": null, "Coal_MW": 0, "NG_MW": 270.9, "Crude_MW": 0, "Other_MW": 0, "Hydro_MW": 0, "HydroPS_MW": 0, "Nuclear_MW": 0, "Solar_MW": 0, "Wind_MW": 0, "Geo_MW": 0, "Bio_MW": 0, "Tidal_MW": 0, "Source": "EIA-860, EIA-860M and EIA-923", "Period": 201705, "orig_ogc_f": 24 }, "geometry": { "type": "Point", "coordinates": [ -115.73431, 43.17918 ] } },

{ "type": "Feature", "properties": { "Country": "United States", "title": "Ferndale Generating Station", "image": "<img src='cascadia/images/NatGas/FerndaleGeneratingStation.jpg'>", "text3": "Owner: Puget Sound Energy Inc", "Operator": null, "Latitude": 48.828813, "Longitude": -122.686667, "City": "Ferndale", "County": "Whatcom", "StateProv": "Washington", "ZipCode": "98248", "Address": "5105 Lake Terrell Road", "text2": "Maximum output: 285.5 megawatts", "Renew_MW": 0, "text1": "Primary Source: Natural Gas", "PrimRenew": null, "Coal_MW": 0, "NG_MW": 285.5, "Crude_MW": 0, "Other_MW": 0, "Hydro_MW": 0, "HydroPS_MW": 0, "Nuclear_MW": 0, "Solar_MW": 0, "Wind_MW": 0, "Geo_MW": 0, "Bio_MW": 0, "Tidal_MW": 0, "Source": "https://pse.com/aboutpse/PseNewsroom/MediaKit/097_Ferndale.pdf", "Period": 201705, "orig_ogc_f": 25 }, "geometry": { "type": "Point", "coordinates": [ -122.68667, 48.82881 ] } },

{ "type": "Feature", "properties": { "Country": "United States", "title": "Frederickson", "image": "<img src='cascadia/images/NatGas/FredericksonIGeneratingStation.jpg'>", "text3": "Owner: Puget Sound Energy Inc", "Operator": null, "Latitude": 47.079722, "Longitude": -122.365000, "City": "Tacoma", "County": "Pierce", "StateProv": "Washington", "ZipCode": "98446", "Address": "4714 192nd St East", "text2": "Maximum output: 177.8 megawatts", "Renew_MW": 0, "text1": "Primary Source: Natural Gas", "PrimRenew": null, "Coal_MW": 0, "NG_MW": 177.8, "Crude_MW": 0, "Other_MW": 0, "Hydro_MW": 0, "HydroPS_MW": 0, "Nuclear_MW": 0, "Solar_MW": 0, "Wind_MW": 0, "Geo_MW": 0, "Bio_MW": 0, "Tidal_MW": 0, "Source": "EIA-860, EIA-860M and EIA-923", "Period": 201705, "orig_ogc_f": 28 }, "geometry": { "type": "Point", "coordinates": [ -122.365, 47.07972 ] } },

{ "type": "Feature", "properties": { "Country": "United States", "title": "Frederickson Power", "image": "<img src='cascadia/images/NatGas/FredericksonLP.jpg'>", "text3": "Owner: Atlantic Power", "Operator": null, "Latitude": 47.086111, "Longitude": -122.365674, "City": "Tacoma", "County": "Pierce", "StateProv": "Washington", "ZipCode": "98446", "Address": "18610-50th Avenue East", "text2": "Maximum output: 318.3 megawatts", "Renew_MW": 0, "text1": "Primary Source: Natural Gas", "PrimRenew": null, "Coal_MW": 0, "NG_MW": 318.3, "Crude_MW": 0, "Other_MW": 0, "Hydro_MW": 0, "HydroPS_MW": 0, "Nuclear_MW": 0, "Solar_MW": 0, "Wind_MW": 0, "Geo_MW": 0, "Bio_MW": 0, "Tidal_MW": 0, "Source": "https://www.atlanticpower.com/assets/projects/frederickson", "Period": 201705, "orig_ogc_f": 29 }, "geometry": { "type": "Point", "coordinates": [ -122.36567, 47.08611 ] } },

{ "type": "Feature", "properties": { "Country": "United States", "title": "Fredonia", "image": "<img src='cascadia/images/NatGas/FredoniaGeneratingStation.jpg'>", "text3": "Owner: Puget Sound Energy Inc", "Operator": null, "Latitude": 48.455800, "Longitude": -122.435800, "City": "Mt Vernon", "County": "Skagit", "StateProv": "Washington", "ZipCode": "98233", "Address": "13085 Ball Road", "text2": "Maximum output: 376 megawatts", "Renew_MW": 0, "text1": "Primary Source: Natural Gas", "PrimRenew": null, "Coal_MW": 0, "NG_MW": 376, "Crude_MW": 0, "Other_MW": 0, "Hydro_MW": 0, "HydroPS_MW": 0, "Nuclear_MW": 0, "Solar_MW": 0, "Wind_MW": 0, "Geo_MW": 0, "Bio_MW": 0, "Tidal_MW": 0, "Source": "EIA-860, EIA-860M and EIA-923", "Period": 201705, "orig_ogc_f": 30 }, "geometry": { "type": "Point", "coordinates": [ -122.4358, 48.4558 ] } },

{ "type": "Feature", "properties": { "Country": "United States", "title": "Goldendale Generating Station", "image": "<img src='cascadia/images/NatGas/Goldendale.jpg'>", "text3": "Owner: Puget Sound Energy Inc", "Operator": null, "Latitude": 45.811400, "Longitude": -120.833000, "City": "Goldendale", "County": "Klickitat", "StateProv": "Washington", "ZipCode": "98620", "Address": "600 Industrial Way", "text2": "Maximum output: 284.3 megawatts", "Renew_MW": 0, "text1": "Primary Source: Natural Gas", "PrimRenew": null, "Coal_MW": 0, "NG_MW": 284.3, "Crude_MW": 0, "Other_MW": 0, "Hydro_MW": 0, "HydroPS_MW": 0, "Nuclear_MW": 0, "Solar_MW": 0, "Wind_MW": 0, "Geo_MW": 0, "Bio_MW": 0, "Tidal_MW": 0, "Source": "EIA-860, EIA-860M and EIA-923", "Period": 201705, "orig_ogc_f": 31 }, "geometry": { "type": "Point", "coordinates": [ -120.833, 45.8114 ] } },

{ "type": "Feature", "properties": { "Country": "United States", "title": "Grays Harbor Energy Facility", "image": "<img src='cascadia/images/NatGas/GraysHarborEnergyCenter.jpg'>", "text3": "Owner: Invenergy Services LLC", "Operator": null, "Latitude": 46.969200, "Longitude": -123.480000, "City": "Elma", "County": "Grays Harbor", "StateProv": "Washington", "ZipCode": "98541", "Address": "401 Keys Road", "text2": "Maximum output: 650 megawatts", "Renew_MW": 0, "text1": "Primary Source: Natural Gas", "PrimRenew": null, "Coal_MW": 0, "NG_MW": 650, "Crude_MW": 0, "Other_MW": 0, "Hydro_MW": 0, "HydroPS_MW": 0, "Nuclear_MW": 0, "Solar_MW": 0, "Wind_MW": 0, "Geo_MW": 0, "Bio_MW": 0, "Tidal_MW": 0, "Source": "EIA-860, EIA-860M and EIA-923", "Period": 201705, "orig_ogc_f": 35 }, "geometry": { "type": "Point", "coordinates": [ -123.48, 46.9692 ] } },

{ "type": "Feature", "properties": { "Country": "United States", "title": "Hermiston Power Partnership", "image": "<img src='cascadia/images/NatGas/HermistonPowerPartnership.jpg'>", "text3": "Owner: Hermiston Power Partnership - Calpine Inc.", "Operator": null, "Latitude": 45.794046, "Longitude": -119.313323, "City": "Hermiston", "County": "Umatilla", "StateProv": "Oregon", "ZipCode": "97838", "Address": "78910 Simplot Road", "text2": "Maximum output: 689.4 megawatts", "Renew_MW": 0, "text1": "Primary Source: Natural Gas", "PrimRenew": null, "Coal_MW": 0, "NG_MW": 689.4, "Crude_MW": 0, "Other_MW": 0, "Hydro_MW": 0, "HydroPS_MW": 0, "Nuclear_MW": 0, "Solar_MW": 0, "Wind_MW": 0, "Geo_MW": 0, "Bio_MW": 0, "Tidal_MW": 0, "Source": "http://www.calpine.com/hermiston-power-project", "Period": 201705, "orig_ogc_f": 40 }, "geometry": { "type": "Point", "coordinates": [ -119.31332, 45.79405 ] } },

{ "type": "Feature", "properties": { "Country": "United States", "title": "Hermiston Generating Plant", "image": "<img src='cascadia/images/NatGas/HermistonGeneratingPlant.jpg'>", "text3": "Owner: Hermiston Generating Co LP", "Operator": null, "Latitude": 45.804200, "Longitude": -119.370000, "City": "Hermiston", "County": "Umatilla", "StateProv": "Oregon", "ZipCode": "97838", "Address": "78145 Westland Road", "text2": "Maximum output: 621.2 megawatts", "Renew_MW": 0, "text1": "Primary Source: Natural Gas", "PrimRenew": null, "Coal_MW": 0, "NG_MW": 621.2, "Crude_MW": 0, "Other_MW": 0, "Hydro_MW": 0, "HydroPS_MW": 0, "Nuclear_MW": 0, "Solar_MW": 0, "Wind_MW": 0, "Geo_MW": 0, "Bio_MW": 0, "Tidal_MW": 0, "Source": "EIA-860, EIA-860M and EIA-923", "Period": 201705, "orig_ogc_f": 39 }, "geometry": { "type": "Point", "coordinates": [ -119.37, 45.8042 ] } },

{ "type": "Feature", "properties": { "Country": "United States", "title": "Humboldt Bay", "image": "<img src='cascadia/images/NatGas/HumboldtBay.jpg'>", "text3": "Owner: Pacific Gas & Electric Co", "Operator": null, "Latitude": 40.741500, "Longitude": -124.210300, "City": "Eureka", "County": "Humboldt", "StateProv": "California", "ZipCode": "95503", "Address": "Buhne Pt. 1000 King Salmon Ave", "text2": "Maximum output: 167 megawatts", "Renew_MW": 0, "text1": "Primary Source: Natural Gas", "PrimRenew": null, "Coal_MW": 0, "NG_MW": 167, "Crude_MW": 0, "Other_MW": 0, "Hydro_MW": 0, "HydroPS_MW": 0, "Nuclear_MW": 0, "Solar_MW": 0, "Wind_MW": 0, "Geo_MW": 0, "Bio_MW": 0, "Tidal_MW": 0, "Source": "EIA-860, EIA-860M and EIA-923", "Period": 201705, "orig_ogc_f": 43 }, "geometry": { "type": "Point", "coordinates": [ -124.2103, 40.7415 ] } },

{ "type": "Feature", "properties": { "Country": "United States", "title": "Klamath Cogeneration Plant", "image": "<img src='cascadia/images/NatGas/.jpg'>", "text3": "Owner: Pacific Klamath Energy Inc", "Operator": null, "Latitude": 42.173889, "Longitude": -121.810556, "City": "Klamath Falls", "County": "Klamath", "StateProv": "Oregon", "ZipCode": "97603", "Address": "4940 Hwy 97 South", "text2": "Maximum output: 501.5 megawatts", "Renew_MW": 0, "text1": "Primary Source: Natural Gas", "PrimRenew": null, "Coal_MW": 0, "NG_MW": 501.5, "Crude_MW": 0, "Other_MW": 0, "Hydro_MW": 0, "HydroPS_MW": 0, "Nuclear_MW": 0, "Solar_MW": 0, "Wind_MW": 0, "Geo_MW": 0, "Bio_MW": 0, "Tidal_MW": 0, "Source": "EIA-860, EIA-860M and EIA-923", "Period": 201705, "orig_ogc_f": 49 }, "geometry": { "type": "Point", "coordinates": [ -121.81056, 42.17389 ] } },

{ "type": "Feature", "properties": { "Country": "United States", "title": "Klamath Expansion Project", "image": "<img src='cascadia/images/NatGas/.jpg'>", "text3": "Owner: Pacific Klamath Energy Inc", "Operator": null, "Latitude": 42.172718, "Longitude": -121.814393, "City": "Klamath Falls", "County": "Klamath", "StateProv": "Oregon", "ZipCode": "97603", "Address": "4940 Hwy 97 South", "text2": "Maximum output: 117.6 megawatts", "Renew_MW": 0, "text1": "Primary Source: Natural Gas", "PrimRenew": null, "Coal_MW": 0, "NG_MW": 117.6, "Crude_MW": 0, "Other_MW": 0, "Hydro_MW": 0, "HydroPS_MW": 0, "Nuclear_MW": 0, "Solar_MW": 0, "Wind_MW": 0, "Geo_MW": 0, "Bio_MW": 0, "Tidal_MW": 0, "Source": "http://www.ccj-online.com/wp-content/uploads/2014/01/Klamath-3Q-2009-p-110.pdf", "Period": 201705, "orig_ogc_f": 50 }, "geometry": { "type": "Point", "coordinates": [ -121.81439, 42.17272 ] } },

{ "type": "Feature", "properties": { "Country": "United States", "title": "Langley Gulch Power Plant", "image": "<img src='cascadia/images/NatGas/LangleyGulch.jpg'>", "text3": "Owner: Idaho Power Co", "Operator": null, "Latitude": 43.904444, "Longitude": -116.819722, "City": "New Plymouth", "County": "Payette", "StateProv": "Idaho", "ZipCode": "83655", "Address": "Interstate 84 and Highway 30", "text2": "Maximum output: 318.5 megawatts", "Renew_MW": 0, "text1": "Primary Source: Natural Gas", "PrimRenew": null, "Coal_MW": 0, "NG_MW": 318.5, "Crude_MW": 0, "Other_MW": 0, "Hydro_MW": 0, "HydroPS_MW": 0, "Nuclear_MW": 0, "Solar_MW": 0, "Wind_MW": 0, "Geo_MW": 0, "Bio_MW": 0, "Tidal_MW": 0, "Source": "EIA-860, EIA-860M and EIA-923", "Period": 201705, "orig_ogc_f": 52 }, "geometry": { "type": "Point", "coordinates": [ -116.81972, 43.90444 ] } },

{ "type": "Feature", "properties": { "Country": "United States", "title": "March Point Cogeneration*", "image": "<img src='cascadia/images/NatGas/.jpg'>", "text3": "Owner: March Point Cogeneration Co", "Operator": null, "Latitude": 48.470800, "Longitude": -122.560000, "City": "Anacortes", "County": "Skagit", "StateProv": "Washington", "ZipCode": "98221", "Address": "8507 South Texas Road", "text2": "Maximum output: 139.8 megawatts", "Renew_MW": 0, "text1": "Primary Source: Natural Gas", "PrimRenew": null, "Coal_MW": 0, "NG_MW": 139.8, "Crude_MW": 0, "Other_MW": 0, "Hydro_MW": 0, "HydroPS_MW": 0, "Nuclear_MW": 0, "Solar_MW": 0, "Wind_MW": 0, "Geo_MW": 0, "Bio_MW": 0, "Tidal_MW": 0, "Source": "EIA-860, EIA-860M and EIA-923", "Period": 201705, "orig_ogc_f": 63 }, "geometry": { "type": "Point", "coordinates": [ -122.56, 48.4708 ] } },

{ "type": "Feature", "properties": { "Country": "United States", "title": "Mint Farm Generating Station", "image": "<img src='cascadia/images/NatGas/MintFarm.jpg'>", "text3": "Owner: Puget Sound Energy Inc", "Operator": null, "Latitude": 46.138824, "Longitude": -122.985506, "City": "Longview", "County": "Cowlitz", "StateProv": "Washington", "ZipCode": "98632", "Address": "1200 Prudential Blvd", "text2": "Maximum output: 319 megawatts", "Renew_MW": 0, "text1": "Primary Source: Natural Gas", "PrimRenew": null, "Coal_MW": 0, "NG_MW": 319, "Crude_MW": 0, "Other_MW": 0, "Hydro_MW": 0, "HydroPS_MW": 0, "Nuclear_MW": 0, "Solar_MW": 0, "Wind_MW": 0, "Geo_MW": 0, "Bio_MW": 0, "Tidal_MW": 0, "Source": "EIA-860, EIA-860M and EIA-923", "Period": 201705, "orig_ogc_f": 69 }, "geometry": { "type": "Point", "coordinates": [ -122.98551, 46.13882 ] } },

{ "type": "Feature", "properties": { "Country": "United States", "title": "Port Westward Generating Plant", "image": "<img src='cascadia/images/NatGas/PortWestward.jpg'>", "text3": "Owner: Portland General Electric Co", "Operator": null, "Latitude": 46.178940, "Longitude": -123.172039, "City": "Clatskanie", "County": "Columbia", "StateProv": "Oregon", "ZipCode": "97016", "Address": "81566 Kallunki Rd", "text2": "Maximum output: 483 megawatts", "Renew_MW": 0, "text1": "Primary Source: Natural Gas", "PrimRenew": null, "Coal_MW": 0, "NG_MW": 483, "Crude_MW": 0, "Other_MW": 0, "Hydro_MW": 0, "HydroPS_MW": 0, "Nuclear_MW": 0, "Solar_MW": 0, "Wind_MW": 0, "Geo_MW": 0, "Bio_MW": 0, "Tidal_MW": 0, "Source": "EIA-860, EIA-860M and EIA-923", "Period": 201705, "orig_ogc_f": 77 }, "geometry": { "type": "Point", "coordinates": [ -123.17204, 46.17894 ] } },

{ "type": "Feature", "properties": { "Country": "United States", "title": "Port Westward Unit 2", "image": "<img src='cascadia/images/NatGas/PortWestwardUnit2.jpg'>", "text3": "Owner: Portland General Electric Co", "Operator": null, "Latitude": 46.178889, "Longitude": -123.171944, "City": "Clatskanie", "County": "Columbia", "StateProv": "Oregon", "ZipCode": "97016", "Address": "81566 Kallunki Rd", "text2": "Maximum output: 225.6 megawatts", "Renew_MW": 0, "text1": "Primary Source: Natural Gas", "PrimRenew": null, "Coal_MW": 0, "NG_MW": 225.6, "Crude_MW": 0, "Other_MW": 0, "Hydro_MW": 0, "HydroPS_MW": 0, "Nuclear_MW": 0, "Solar_MW": 0, "Wind_MW": 0, "Geo_MW": 0, "Bio_MW": 0, "Tidal_MW": 0, "Source": "EIA-860, EIA-860M and EIA-923", "Period": 201705, "orig_ogc_f": 78 }, "geometry": { "type": "Point", "coordinates": [ -123.17194, 46.17889 ] } },

{ "type": "Feature", "properties": { "Country": "United States", "title": "Rathdrum*", "image": "<img src='cascadia/images/NatGas/.jpg'>", "text3": "Owner: Avista Corp", "Operator": null, "Latitude": 47.804270, "Longitude": -116.867312, "City": "Rathdrum", "County": "Kootenai", "StateProv": "Idaho", "ZipCode": "83858", "Address": "5999 W Boekel Road", "text2": "Maximum output: 166.4 megawatts", "Renew_MW": 0, "text1": "Primary Source: Natural Gas", "PrimRenew": null, "Coal_MW": 0, "NG_MW": 166.4, "Crude_MW": 0, "Other_MW": 0, "Hydro_MW": 0, "HydroPS_MW": 0, "Nuclear_MW": 0, "Solar_MW": 0, "Wind_MW": 0, "Geo_MW": 0, "Bio_MW": 0, "Tidal_MW": 0, "Source": "EIA-860, EIA-860M and EIA-923", "Period": 201705, "orig_ogc_f": 80 }, "geometry": { "type": "Point", "coordinates": [ -116.86731, 47.80427 ] } },

{ "type": "Feature", "properties": { "Country": "United States", "title": "Rathdrum Power LLC", "image": "<img src='cascadia/images/NatGas/RathdrumPower.jpg'>", "text3": "Owner: Rathdrum Operating Services Co. Inc.", "Operator": null, "Latitude": 47.785800, "Longitude": -116.920300, "City": "Rathdrum", "County": "Kootenai", "StateProv": "Idaho", "ZipCode": "83858", "Address": "9924 West Lancaster Road", "text2": "Maximum output: 301.5 megawatts", "Renew_MW": 0, "text1": "Primary Source: Natural Gas", "PrimRenew": null, "Coal_MW": 0, "NG_MW": 301.5, "Crude_MW": 0, "Other_MW": 0, "Hydro_MW": 0, "HydroPS_MW": 0, "Nuclear_MW": 0, "Solar_MW": 0, "Wind_MW": 0, "Geo_MW": 0, "Bio_MW": 0, "Tidal_MW": 0, "Source": "EIA-860, EIA-860M and EIA-923", "Period": 201705, "orig_ogc_f": 81 }, "geometry": { "type": "Point", "coordinates": [ -116.9203, 47.7858 ] } },

{ "type": "Feature", "properties": { "Country": "United States", "title": "River Road Gen Plant", "image": "<img src='cascadia/images/NatGas/RiverRoad.jpg'>", "text3": "Owner: PUD No 1 of Clark County WA", "Operator": null, "Latitude": 45.649700, "Longitude": -122.725600, "City": "Vancouver", "County": "Clark", "StateProv": "Washington", "ZipCode": "98660", "Address": "5201 N W Lower River Road", "text2": "Maximum output: 248 megawatts", "Renew_MW": 0, "text1": "Primary Source: Natural Gas", "PrimRenew": null, "Coal_MW": 0, "NG_MW": 248, "Crude_MW": 0, "Other_MW": 0, "Hydro_MW": 0, "HydroPS_MW": 0, "Nuclear_MW": 0, "Solar_MW": 0, "Wind_MW": 0, "Geo_MW": 0, "Bio_MW": 0, "Tidal_MW": 0, "Source": "http://www.columbian.com/news/2012/jan/12/power-plants-biggest-polluters-vancouver-plant-10t/", "Period": 201705, "orig_ogc_f": 82 }, "geometry": { "type": "Point", "coordinates": [ -122.7256, 45.6497 ] } },

{ "type": "Feature", "properties": { "Country": "United States", "title": "Sumas Power Plant", "image": "<img src='cascadia/images/NatGas/SumasPowerPlant.jpg'>", "text3": "Owner: Puget Sound Energy Inc", "Operator": null, "Latitude": 48.990500, "Longitude": -122.273300, "City": "Sumas", "County": "Whatcom", "StateProv": "Washington", "ZipCode": "98295", "Address": "1340 Thompson Lane", "text2": "Maximum output: 125.5 megawatts", "Renew_MW": 0, "text1": "Primary Source: Natural Gas", "PrimRenew": null, "Coal_MW": 0, "NG_MW": 125.5, "Crude_MW": 0, "Other_MW": 0, "Hydro_MW": 0, "HydroPS_MW": 0, "Nuclear_MW": 0, "Solar_MW": 0, "Wind_MW": 0, "Geo_MW": 0, "Bio_MW": 0, "Tidal_MW": 0, "Source": "EIA-860, EIA-860M and EIA-923", "Period": 201705, "orig_ogc_f": 89 }, "geometry": { "type": "Point", "coordinates": [ -122.2733, 48.9905 ] } },

{ "type": "Feature", "properties": { "Country": "United States", "title": "Whitehorn", "image": "<img src='cascadia/images/NatGas/Whitehorn.jpg'>", "text3": "Owner: Puget Sound Energy Inc", "Operator": null, "Latitude": 48.828784, "Longitude": -122.686090, "City": "Blaine", "County": "Whatcom", "StateProv": "Washington", "ZipCode": "98230", "Address": "4930 Brown Rd", "text2": "Maximum output: 169.2 megawatts", "Renew_MW": 0, "text1": "Primary Source: Natural Gas", "PrimRenew": null, "Coal_MW": 0, "NG_MW": 169.2, "Crude_MW": 0, "Other_MW": 0, "Hydro_MW": 0, "HydroPS_MW": 0, "Nuclear_MW": 0, "Solar_MW": 0, "Wind_MW": 0, "Geo_MW": 0, "Bio_MW": 0, "Tidal_MW": 0, "Source": "https://pse.com/aboutpse/PseNewsroom/MediaKit/056_Whitehorn.pdf", "Period": 201705, "orig_ogc_f": 100 }, "geometry": { "type": "Point", "coordinates": [ -122.68609, 48.82878 ] } },

{ "type": "Feature", "properties": { "Country": "Canada", "title": "Burrard Generating Station", "image": "<img src='cascadia/images/NatGas/BurrardGeneratingStation.jpg'>", "text3": "Owner: BC Hydro", "Operator": "BC Hydro", "Latitude": 49.298790, "Longitude": -122.890590, "City": "Port Moody", "County": null, "StateProv": "British Columbia", "ZipCode": null, "Address": null, "text2": "Maximum output: 950 megawatts", "Renew_MW": 0, "text1": "Primary Source: Natural Gas", "PrimRenew": null, "Coal_MW": 0, "NG_MW": 950, "Crude_MW": 0, "Other_MW": 0, "Hydro_MW": 0, "HydroPS_MW": 0, "Nuclear_MW": 0, "Solar_MW": 0, "Wind_MW": 0, "Geo_MW": 0, "Bio_MW": 0, "Tidal_MW": 0, "Source": "BC Hydro", "Period": 201708, "orig_ogc_f": 104 }, "geometry": { "type": "Point", "coordinates": [ -122.89059, 49.29879 ] } },

{ "type": "Feature", "properties": { "Country": "Canada", "title": "Island Generation", "image": "<img src='cascadia/images/NatGas/IslandGeneration.jpg'>", "text3": "Owner: Capital Power", "Operator": "Capital Power", "Latitude": 50.069379, "Longitude": -125.281452, "City": "Campbell River", "County": null, "StateProv": "British Columbia", "ZipCode": null, "Address": "4400 Orange Point Road", "text2": "Maximum output: 275 megawatts", "Renew_MW": 0, "text1": "Primary Source: Natural Gas", "PrimRenew": null, "Coal_MW": 0, "NG_MW": 275, "Crude_MW": 0, "Other_MW": 0, "Hydro_MW": 0, "HydroPS_MW": 0, "Nuclear_MW": 0, "Solar_MW": 0, "Wind_MW": 0, "Geo_MW": 0, "Bio_MW": 0, "Tidal_MW": 0, "Source": "BC Hydro IPP supply", "Period": 201704, "orig_ogc_f": 105 }, "geometry": { "type": "Point", "coordinates": [ -125.28145, 50.06938 ] } }
]
}
