{
"type": "FeatureCollection",
"name": "GiantOilFields",
"crs": { "type": "name", "properties": { "name": "urn:ogc:def:crs:OGC:1.3:CRS84" } },
"features": [
{ "type": "Feature", "properties": { "FLD_NAME": "Julia", "COUNTRY": "United States", "EUR_MMBOE": 1000.0, "PRV_USGS_N": "Gulf Cenozoic OCS", "ERA": "Unknown", "SYSTEM": null, "SERIES": null, "STAGE": null, "REFERENCES": "1203" }, "geometry": { "type": "Point", "coordinates": [ -92.0, 26.0 ] } },
{ "type": "Feature", "properties": { "FLD_NAME": "Pazflor", "COUNTRY": "Angola", "EUR_MMBOE": 590.0, "PRV_USGS_N": "West-central Coastal", "ERA": "Unknown", "SYSTEM": null, "SERIES": null, "STAGE": null, "REFERENCES": null }, "geometry": { "type": "Point", "coordinates": [ 11.861, -8.828 ] } },
{ "type": "Feature", "properties": { "FLD_NAME": "West Qurna", "COUNTRY": "Iraq", "EUR_MMBOE": 11374.167, "PRV_USGS_N": "Mesopotamian Foredeep Basin", "ERA": "Mesozoic", "SYSTEM": "Cretaceous", "SERIES": "Lower Cretaceous", "STAGE": null, "REFERENCES": "3, 38, 73, 74, 75, 883, 949" }, "geometry": { "type": "Point", "coordinates": [ 47.267, 31.1 ] } },
{ "type": "Feature", "properties": { "FLD_NAME": "Jabal Fauqui", "COUNTRY": "Iraq", "EUR_MMBOE": 1000.0, "PRV_USGS_N": "Zagros Fold Belt", "ERA": "Cenozoic", "SYSTEM": "Neogene", "SERIES": "Miocene", "STAGE": null, "REFERENCES": "2, 38, 66, 883" }, "geometry": { "type": "Point", "coordinates": [ 47.65, 32.0 ] } },
{ "type": "Feature", "properties": { "FLD_NAME": "Buzurgan", "COUNTRY": "Iraq", "EUR_MMBOE": 1980.0, "PRV_USGS_N": "Zagros Fold Belt", "ERA": "Cenozoic", "SYSTEM": "Neogene", "SERIES": "Miocene", "STAGE": null, "REFERENCES": "2, 38, 647, 949" }, "geometry": { "type": "Point", "coordinates": [ 47.233, 32.267 ] } },
{ "type": "Feature", "properties": { "FLD_NAME": "Parsi", "COUNTRY": "Iran", "EUR_MMBOE": 5333.083, "PRV_USGS_N": "Zagros Fold Belt", "ERA": "Cenozoic", "SYSTEM": "Neogene", "SERIES": "Miocene", "STAGE": null, "REFERENCES": "3, 661, 1094" }, "geometry": { "type": "Point", "coordinates": [ 49.973, 31.0 ] } },
{ "type": "Feature", "properties": { "FLD_NAME": "Bassein, North", "COUNTRY": "India", "EUR_MMBOE": 550.0, "PRV_USGS_N": "Bombay", "ERA": "Cenozoic", "SYSTEM": "Neogene", "SERIES": "Miocene", "STAGE": null, "REFERENCES": "2, 290" }, "geometry": { "type": "Point", "coordinates": [ 72.0, 19.317 ] } },
{ "type": "Feature", "properties": { "FLD_NAME": "Abu Ghirab", "COUNTRY": "Iraq", "EUR_MMBOE": 1135.333, "PRV_USGS_N": "Zagros Fold Belt", "ERA": "Cenozoic", "SYSTEM": "Paleogene", "SERIES": "Oligocene", "STAGE": null, "REFERENCES": "2, 3, 38, 667, 668" }, "geometry": { "type": "Point", "coordinates": [ 47.404, 32.37 ] } },
{ "type": "Feature", "properties": { "FLD_NAME": "Lab-E-Safid", "COUNTRY": "Iran", "EUR_MMBOE": 990.907, "PRV_USGS_N": "Zagros Fold Belt", "ERA": "Cenozoic", "SYSTEM": "Paleogene", "SERIES": "Oligocene", "STAGE": null, "REFERENCES": "2, 3, 658, 659, 1094" }, "geometry": { "type": "Point", "coordinates": [ 48.644, 32.662 ] } },
{ "type": "Feature", "properties": { "FLD_NAME": "Marun", "COUNTRY": "Iran", "EUR_MMBOE": 34508.102, "PRV_USGS_N": "Zagros Fold Belt", "ERA": "Cenozoic", "SYSTEM": "Paleogene", "SERIES": "Oligocene", "STAGE": null, "REFERENCES": "1, 2, 3, 38, 179, 645, 1094" }, "geometry": { "type": "Point", "coordinates": [ 49.397, 31.042 ] } },
{ "type": "Feature", "properties": { "FLD_NAME": "Jambur", "COUNTRY": "Iraq", "EUR_MMBOE": 4633.333, "PRV_USGS_N": "Zagros Fold Belt", "ERA": "Cenozoic", "SYSTEM": "Paleogene", "SERIES": "Oligocene", "STAGE": null, "REFERENCES": "2, 3, 38, 673, 667, 949" }, "geometry": { "type": "Point", "coordinates": [ 44.57, 35.125 ] } },
{ "type": "Feature", "properties": { "FLD_NAME": "Ajil", "COUNTRY": "Iraq", "EUR_MMBOE": 916.667, "PRV_USGS_N": "Zagros Fold Belt", "ERA": "Cenozoic", "SYSTEM": "Paleogene", "SERIES": "Oligocene", "STAGE": null, "REFERENCES": "3, 689, 690, 883, 1145" }, "geometry": { "type": "Point", "coordinates": [ 43.982, 34.876 ] } },
{ "type": "Feature", "properties": { "FLD_NAME": "Bai Hassan", "COUNTRY": "Iraq", "EUR_MMBOE": 2266.667, "PRV_USGS_N": "Zagros Fold Belt", "ERA": "Cenozoic", "SYSTEM": "Paleogene", "SERIES": "Oligocene", "STAGE": null, "REFERENCES": "1, 2, 3, 38, 674, 675, 883, 949" }, "geometry": { "type": "Point", "coordinates": [ 44.039, 35.663 ] } },
{ "type": "Feature", "properties": { "FLD_NAME": "Halfayah", "COUNTRY": "Iraq", "EUR_MMBOE": 4726.667, "PRV_USGS_N": "Mesopotamian Foredeep Basin", "ERA": "Cenozoic", "SYSTEM": "Paleogene", "SERIES": "Oligocene", "STAGE": null, "REFERENCES": "2, 3, 678, 679, 883, 1145" }, "geometry": { "type": "Point", "coordinates": [ 47.483, 31.665 ] } },
{ "type": "Feature", "properties": { "FLD_NAME": "Khabbaz", "COUNTRY": "Iraq", "EUR_MMBOE": 2500.0, "PRV_USGS_N": "Zagros Fold Belt", "ERA": "Cenozoic", "SYSTEM": "Paleogene", "SERIES": "Oligocene", "STAGE": null, "REFERENCES": "3, 38, 77, 949" }, "geometry": { "type": "Point", "coordinates": [ 44.214, 35.465 ] } },
{ "type": "Feature", "properties": { "FLD_NAME": "Bibi Hakimeh", "COUNTRY": "Iran", "EUR_MMBOE": 7595.318, "PRV_USGS_N": "Zagros Fold Belt", "ERA": "Cenozoic", "SYSTEM": "Paleogene", "SERIES": "Oligocene", "STAGE": null, "REFERENCES": "1, 2, 3, 38, 62, 1094" }, "geometry": { "type": "Point", "coordinates": [ 50.382, 30.195 ] } },
{ "type": "Feature", "properties": { "FLD_NAME": "Gachsaran", "COUNTRY": "Iran", "EUR_MMBOE": 21430.025, "PRV_USGS_N": "Zagros Fold Belt", "ERA": "Cenozoic", "SYSTEM": "Paleogene", "SERIES": "Oligocene", "STAGE": null, "REFERENCES": "1, 2, 3, 62, 1094" }, "geometry": { "type": "Point", "coordinates": [ 50.806, 30.22 ] } },
{ "type": "Feature", "properties": { "FLD_NAME": "Naft Safid", "COUNTRY": "Iran", "EUR_MMBOE": 1303.382, "PRV_USGS_N": "Zagros Fold Belt", "ERA": "Cenozoic", "SYSTEM": "Paleogene", "SERIES": "Oligocene", "STAGE": null, "REFERENCES": "1, 2, 3, 38, 179, 1094" }, "geometry": { "type": "Point", "coordinates": [ 49.263, 31.669 ] } },
{ "type": "Feature", "properties": { "FLD_NAME": "Nargesi", "COUNTRY": "Iran", "EUR_MMBOE": 500.0, "PRV_USGS_N": "Zagros Fold Belt", "ERA": "Cenozoic", "SYSTEM": "Paleogene", "SERIES": "Oligocene", "STAGE": null, "REFERENCES": "3, 38, 61, 62" }, "geometry": { "type": "Point", "coordinates": [ 51.298, 29.488 ] } },
{ "type": "Feature", "properties": { "FLD_NAME": "Masjid-i-Sulemain", "COUNTRY": "Iran", "EUR_MMBOE": 1469.0, "PRV_USGS_N": "Zagros Fold Belt", "ERA": "Cenozoic", "SYSTEM": "Paleogene", "SERIES": "Oligocene", "STAGE": null, "REFERENCES": "1, 2, 38, 645, 1094" }, "geometry": { "type": "Point", "coordinates": [ 49.268, 31.995 ] } },
{ "type": "Feature", "properties": { "FLD_NAME": "Kirkuk", "COUNTRY": "Iraq", "EUR_MMBOE": 26370.0, "PRV_USGS_N": "Zagros Fold Belt", "ERA": "Cenozoic", "SYSTEM": "Paleogene", "SERIES": "Oligocene", "STAGE": null, "REFERENCES": "1, 2, 681, 682, 883, 949" }, "geometry": { "type": "Point", "coordinates": [ 44.097, 35.701 ] } },
{ "type": "Feature", "properties": { "FLD_NAME": "Gialo", "COUNTRY": "Libya", "EUR_MMBOE": 1135.473, "PRV_USGS_N": "Sirte Basin", "ERA": "Cenozoic", "SYSTEM": "Paleogene", "SERIES": "Eocene", "STAGE": null, "REFERENCES": "1, 2, 3, 38, 475, 481" }, "geometry": { "type": "Point", "coordinates": [ 21.403, 28.687 ] } },
{ "type": "Feature", "properties": { "FLD_NAME": "Bouri", "COUNTRY": "Libya", "EUR_MMBOE": 532.6, "PRV_USGS_N": "Pelagian Basin", "ERA": "Cenozoic", "SYSTEM": "Paleogene", "SERIES": "Paleocene", "STAGE": null, "REFERENCES": "2, 3, 38, 619" }, "geometry": { "type": "Point", "coordinates": [ 12.506, 33.904 ] } },
{ "type": "Feature", "properties": { "FLD_NAME": "Nasser", "COUNTRY": "Libya", "EUR_MMBOE": 631.667, "PRV_USGS_N": "Sirte Basin", "ERA": "Cenozoic", "SYSTEM": "Paleogene", "SERIES": "Paleocene", "STAGE": null, "REFERENCES": "1, 2, 3, 38, 476, 484" }, "geometry": { "type": "Point", "coordinates": [ 19.77, 28.913 ] } },
{ "type": "Feature", "properties": { "FLD_NAME": "Defa", "COUNTRY": "Libya", "EUR_MMBOE": 1096.62, "PRV_USGS_N": "Sirte Basin", "ERA": "Cenozoic", "SYSTEM": "Paleogene", "SERIES": "Paleocene", "STAGE": null, "REFERENCES": "1, 2, 3, 38, 482" }, "geometry": { "type": "Point", "coordinates": [ 19.899, 28.06 ] } },
{ "type": "Feature", "properties": { "FLD_NAME": "Eldfisk", "COUNTRY": "Norway", "EUR_MMBOE": 1002.0, "PRV_USGS_N": "North Sea Graben", "ERA": "Cenozoic", "SYSTEM": "Paleogene", "SERIES": "Paleocene", "STAGE": null, "REFERENCES": "2, 38, 89" }, "geometry": { "type": "Point", "coordinates": [ 3.2, 56.433 ] } },
{ "type": "Feature", "properties": { "FLD_NAME": "Bahi", "COUNTRY": "Libya", "EUR_MMBOE": 600.0, "PRV_USGS_N": "Sirte Basin", "ERA": "Cenozoic", "SYSTEM": "Paleogene", "SERIES": "Paleocene", "STAGE": null, "REFERENCES": "2, 38, 482, 485, 486" }, "geometry": { "type": "Point", "coordinates": [ 17.55, 29.79 ] } },
{ "type": "Feature", "properties": { "FLD_NAME": "Waha", "COUNTRY": "Libya", "EUR_MMBOE": 1400.0, "PRV_USGS_N": "Sirte Basin", "ERA": "Cenozoic", "SYSTEM": "Paleogene", "SERIES": "Paleocene", "STAGE": null, "REFERENCES": "1, 2, 38, 478" }, "geometry": { "type": "Point", "coordinates": [ 19.922, 28.299 ] } },
{ "type": "Feature", "properties": { "FLD_NAME": "Beda", "COUNTRY": "Libya", "EUR_MMBOE": 732.107, "PRV_USGS_N": "Sirte Basin", "ERA": "Cenozoic", "SYSTEM": "Paleogene", "SERIES": "Paleocene", "STAGE": null, "REFERENCES": "3, 38, 482" }, "geometry": { "type": "Point", "coordinates": [ 19.017, 28.362 ] } },
{ "type": "Feature", "properties": { "FLD_NAME": "Shah", "COUNTRY": "UAE", "EUR_MMBOE": 900.0, "PRV_USGS_N": "Rub Al Khali Basin", "ERA": "Mesozoic", "SYSTEM": "Cretaceous", "SERIES": "Upper Cretaceous", "STAGE": null, "REFERENCES": "2, 3, 38, 625, 1145" }, "geometry": { "type": "Point", "coordinates": [ 53.849, 22.937 ] } },
{ "type": "Feature", "properties": { "FLD_NAME": "Baghdad, West", "COUNTRY": "Iraq", "EUR_MMBOE": 1023.333, "PRV_USGS_N": "Mesopotamian Foredeep Basin", "ERA": "Mesozoic", "SYSTEM": "Cretaceous", "SERIES": "Upper Cretaceous", "STAGE": null, "REFERENCES": "3, 669, 672" }, "geometry": { "type": "Point", "coordinates": [ 43.6, 33.45 ] } },
{ "type": "Feature", "properties": { "FLD_NAME": "Suwaidiyah", "COUNTRY": "Syria", "EUR_MMBOE": 753.433, "PRV_USGS_N": "Zagros Fold Belt", "ERA": "Mesozoic", "SYSTEM": "Cretaceous", "SERIES": "Upper Cretaceous", "STAGE": null, "REFERENCES": "2, 3, 38, 821, 822" }, "geometry": { "type": "Point", "coordinates": [ 42.133, 36.933 ] } },
{ "type": "Feature", "properties": { "FLD_NAME": "Augila-Nafoora", "COUNTRY": "Libya", "EUR_MMBOE": 1083.5, "PRV_USGS_N": "Sirte Basin", "ERA": "Mesozoic", "SYSTEM": "Cretaceous", "SERIES": "Upper Cretaceous", "STAGE": null, "REFERENCES": "1, 2, 3, 38, 483" }, "geometry": { "type": "Point", "coordinates": [ 21.43, 29.187 ] } },
{ "type": "Feature", "properties": { "FLD_NAME": "Lawhah", "COUNTRY": "Saudi Arabia", "EUR_MMBOE": 1283.333, "PRV_USGS_N": "Mesopotamian Foredeep Basin", "ERA": "Mesozoic", "SYSTEM": "Cretaceous", "SERIES": "Upper Cretaceous", "STAGE": null, "REFERENCES": "2, 3, 660" }, "geometry": { "type": "Point", "coordinates": [ 49.618, 28.253 ] } },
{ "type": "Feature", "properties": { "FLD_NAME": "Ahdab", "COUNTRY": "Iraq", "EUR_MMBOE": 516.667, "PRV_USGS_N": "Mesopotamian Foredeep Basin", "ERA": "Mesozoic", "SYSTEM": "Cretaceous", "SERIES": "Upper Cretaceous", "STAGE": null, "REFERENCES": "3, 669, 670" }, "geometry": { "type": "Point", "coordinates": [ 45.667, 32.467 ] } },
{ "type": "Feature", "properties": { "FLD_NAME": "Ab-E-Teimur", "COUNTRY": "Iran", "EUR_MMBOE": 2600.0, "PRV_USGS_N": "Mesopotamian Foredeep Basin", "ERA": "Mesozoic", "SYSTEM": "Cretaceous", "SERIES": "Upper Cretaceous", "STAGE": null, "REFERENCES": "2, 3, 38, 667, 1094" }, "geometry": { "type": "Point", "coordinates": [ 48.497, 31.217 ] } },
{ "type": "Feature", "properties": { "FLD_NAME": "Fateh", "COUNTRY": "UAE", "EUR_MMBOE": 3900.0, "PRV_USGS_N": "Rub Al Khali Basin", "ERA": "Mesozoic", "SYSTEM": "Cretaceous", "SERIES": "Upper Cretaceous", "STAGE": null, "REFERENCES": "2, 60, 1145" }, "geometry": { "type": "Point", "coordinates": [ 54.433, 25.6 ] } },
{ "type": "Feature", "properties": { "FLD_NAME": "Tuba", "COUNTRY": "Iraq", "EUR_MMBOE": 1588.333, "PRV_USGS_N": "Mesopotamian Foredeep Basin", "ERA": "Mesozoic", "SYSTEM": "Cretaceous", "SERIES": "Upper Cretaceous", "STAGE": null, "REFERENCES": "2, 3, 38, 692, 883, 1145" }, "geometry": { "type": "Point", "coordinates": [ 47.498, 30.395 ] } },
{ "type": "Feature", "properties": { "FLD_NAME": "Majnoon", "COUNTRY": "Iraq", "EUR_MMBOE": 14833.333, "PRV_USGS_N": "Mesopotamian Foredeep Basin", "ERA": "Mesozoic", "SYSTEM": "Cretaceous", "SERIES": "Upper Cretaceous", "STAGE": null, "REFERENCES": "2, 3,  685, 883, 1187" }, "geometry": { "type": "Point", "coordinates": [ 47.625, 31.035 ] } },
{ "type": "Feature", "properties": { "FLD_NAME": "Nasiryah", "COUNTRY": "Iraq", "EUR_MMBOE": 2620.0, "PRV_USGS_N": "Mesopotamian Foredeep Basin", "ERA": "Mesozoic", "SYSTEM": "Cretaceous", "SERIES": "Upper Cretaceous", "STAGE": null, "REFERENCES": "3, 687, 883, 1145" }, "geometry": { "type": "Point", "coordinates": [ 46.011, 31.323 ] } },
{ "type": "Feature", "properties": { "FLD_NAME": "Ratawi", "COUNTRY": "Iraq", "EUR_MMBOE": 3246.667, "PRV_USGS_N": "Mesopotamian Foredeep Basin", "ERA": "Mesozoic", "SYSTEM": "Cretaceous", "SERIES": "Upper Cretaceous", "STAGE": null, "REFERENCES": "3, 688, 1145" }, "geometry": { "type": "Point", "coordinates": [ 47.099, 30.564 ] } },
{ "type": "Feature", "properties": { "FLD_NAME": "Shakeh", "COUNTRY": "Iran", "EUR_MMBOE": 550.0, "PRV_USGS_N": "Zagros Fold Belt", "ERA": "Mesozoic", "SYSTEM": "Cretaceous", "SERIES": "Upper Cretaceous", "STAGE": null, "REFERENCES": "3, 38" }, "geometry": { "type": "Point", "coordinates": [ 48.006, 32.22 ] } },
{ "type": "Feature", "properties": { "FLD_NAME": "Giraldas", "COUNTRY": "Mexico", "EUR_MMBOE": 681.767, "PRV_USGS_N": "Villahermosa Uplift", "ERA": "Mesozoic", "SYSTEM": "Cretaceous", "SERIES": null, "STAGE": null, "REFERENCES": "3, 82, 434" }, "geometry": { "type": "Point", "coordinates": [ -93.482, 17.667 ] } },
{ "type": "Feature", "properties": { "FLD_NAME": "Bu Tini", "COUNTRY": "UAE", "EUR_MMBOE": 1000.0, "PRV_USGS_N": "Rub Al Khali Basin", "ERA": "Mesozoic", "SYSTEM": "Cretaceous", "SERIES": null, "STAGE": null, "REFERENCES": "2, 69, 786" }, "geometry": { "type": "Point", "coordinates": [ 52.983, 24.567 ] } },
{ "type": "Feature", "properties": { "FLD_NAME": "Qusahwira", "COUNTRY": "UAE", "EUR_MMBOE": 700.0, "PRV_USGS_N": "Rub Al Khali Basin", "ERA": "Mesozoic", "SYSTEM": "Cretaceous", "SERIES": null, "STAGE": null, "REFERENCES": "2, 60, 831" }, "geometry": { "type": "Point", "coordinates": [ 55.0, 22.667 ] } },
{ "type": "Feature", "properties": { "FLD_NAME": "Arenque", "COUNTRY": "Mexico", "EUR_MMBOE": 1000.0, "PRV_USGS_N": "Tampico-Misantla Basin", "ERA": "Mesozoic", "SYSTEM": "Cretaceous", "SERIES": null, "STAGE": null, "REFERENCES": "1, 435, 968" }, "geometry": { "type": "Point", "coordinates": [ -97.267, 22.233 ] } },
{ "type": "Feature", "properties": { "FLD_NAME": "Poza Rica", "COUNTRY": "Mexico", "EUR_MMBOE": 2000.0, "PRV_USGS_N": "Tampico-Misantla Basin", "ERA": "Mesozoic", "SYSTEM": "Cretaceous", "SERIES": null, "STAGE": null, "REFERENCES": "1, 2, 338, 435, 965, 966" }, "geometry": { "type": "Point", "coordinates": [ -97.387, 20.492 ] } },
{ "type": "Feature", "properties": { "FLD_NAME": "Zapadno Surgutskoye", "COUNTRY": "Russia", "EUR_MMBOE": 2000.0, "PRV_USGS_N": "West Siberian Basin", "ERA": "Mesozoic", "SYSTEM": "Cretaceous", "SERIES": null, "STAGE": null, "REFERENCES": "1, 2, 467, 124, 914" }, "geometry": { "type": "Point", "coordinates": [ 72.888, 62.44 ] } },
{ "type": "Feature", "properties": { "FLD_NAME": "Samah", "COUNTRY": "Libya", "EUR_MMBOE": 500.0, "PRV_USGS_N": "Sirte Basin", "ERA": "Mesozoic", "SYSTEM": "Cretaceous", "SERIES": null, "STAGE": null, "REFERENCES": "1, 2, 487" }, "geometry": { "type": "Point", "coordinates": [ 19.17, 28.164 ] } },
{ "type": "Feature", "properties": { "FLD_NAME": "Haft Kel", "COUNTRY": "Iran", "EUR_MMBOE": 1946.0, "PRV_USGS_N": "Zagros Fold Belt", "ERA": "Mesozoic", "SYSTEM": "Cretaceous", "SERIES": null, "STAGE": null, "REFERENCES": "1, 2, 652, 1094" }, "geometry": { "type": "Point", "coordinates": [ 49.535, 31.438 ] } },
{ "type": "Feature", "properties": { "FLD_NAME": "Kupal", "COUNTRY": "Iran", "EUR_MMBOE": 3213.333, "PRV_USGS_N": "Zagros Fold Belt", "ERA": "Mesozoic", "SYSTEM": "Cretaceous", "SERIES": null, "STAGE": null, "REFERENCES": "2, 3, 656, 657, 1094" }, "geometry": { "type": "Point", "coordinates": [ 49.283, 31.321 ] } },
{ "type": "Feature", "properties": { "FLD_NAME": "Agave", "COUNTRY": "Mexico", "EUR_MMBOE": 1686.967, "PRV_USGS_N": "Villahermosa Uplift", "ERA": "Mesozoic", "SYSTEM": "Cretaceous", "SERIES": null, "STAGE": null, "REFERENCES": "2, 3, 82" }, "geometry": { "type": "Point", "coordinates": [ -92.95, 17.764 ] } },
{ "type": "Feature", "properties": { "FLD_NAME": "Hout", "COUNTRY": "Divided Neutral Zone: Kuwait\/Saudi Arabia", "EUR_MMBOE": 832.078, "PRV_USGS_N": "Mesopotamian Foredeep Basin", "ERA": "Mesozoic", "SYSTEM": "Cretaceous", "SERIES": null, "STAGE": null, "REFERENCES": "1, 3, 706, 950" }, "geometry": { "type": "Point", "coordinates": [ 48.917, 28.833 ] } },
{ "type": "Feature", "properties": { "FLD_NAME": "Harqus", "COUNTRY": "Saudi Arabia", "EUR_MMBOE": 1000.0, "PRV_USGS_N": "Mesopotamian Foredeep Basin", "ERA": "Mesozoic", "SYSTEM": "Cretaceous", "SERIES": null, "STAGE": null, "REFERENCES": "3, 64" }, "geometry": { "type": "Point", "coordinates": [ 49.75, 27.967 ] } },
{ "type": "Feature", "properties": { "FLD_NAME": "Hasbah", "COUNTRY": "Saudi Arabia", "EUR_MMBOE": 1883.333, "PRV_USGS_N": "Mesopotamian Foredeep Basin", "ERA": "Mesozoic", "SYSTEM": "Cretaceous", "SERIES": null, "STAGE": null, "REFERENCES": "3, 799" }, "geometry": { "type": "Point", "coordinates": [ 50.003, 28.162 ] } },
{ "type": "Feature", "properties": { "FLD_NAME": "Malgobek Voznesenskoye", "COUNTRY": "Russia", "EUR_MMBOE": 634.9, "PRV_USGS_N": "Middle Caspian Basin", "ERA": "Mesozoic", "SYSTEM": "Cretaceous", "SERIES": null, "STAGE": null, "REFERENCES": "1, 2, 3, 38, 750" }, "geometry": { "type": "Point", "coordinates": [ 44.739, 43.529 ] } },
{ "type": "Feature", "properties": { "FLD_NAME": "Darquain", "COUNTRY": "Iran", "EUR_MMBOE": 3169.533, "PRV_USGS_N": "Mesopotamian Foredeep Basin", "ERA": "Mesozoic", "SYSTEM": "Cretaceous", "SERIES": null, "STAGE": null, "REFERENCES": "3, 648, 1094" }, "geometry": { "type": "Point", "coordinates": [ 48.292, 30.733 ] } },
{ "type": "Feature", "properties": { "FLD_NAME": "Jufeyr", "COUNTRY": "Iran", "EUR_MMBOE": 500.0, "PRV_USGS_N": "Mesopotamian Foredeep Basin", "ERA": "Mesozoic", "SYSTEM": "Cretaceous", "SERIES": null, "STAGE": null, "REFERENCES": "3, 38, 64, 1094" }, "geometry": { "type": "Point", "coordinates": [ 48.283, 31.133 ] } },
{ "type": "Feature", "properties": { "FLD_NAME": "Kharg Island-Doroud", "COUNTRY": "Iran", "EUR_MMBOE": 4079.333, "PRV_USGS_N": "Mesopotamian Foredeep Basin", "ERA": "Mesozoic", "SYSTEM": "Cretaceous", "SERIES": null, "STAGE": null, "REFERENCES": "1, 2, 3, 61, 179, 1094" }, "geometry": { "type": "Point", "coordinates": [ 50.254, 29.193 ] } },
{ "type": "Feature", "properties": { "FLD_NAME": "Khafji", "COUNTRY": "Divided Neutral Zone: Kuwait\/Saudi Arabia", "EUR_MMBOE": 8814.913, "PRV_USGS_N": "Mesopotamian Foredeep Basin", "ERA": "Mesozoic", "SYSTEM": "Cretaceous", "SERIES": null, "STAGE": null, "REFERENCES": "3, 715, 716, 717, 950" }, "geometry": { "type": "Point", "coordinates": [ 48.917, 28.533 ] } },
{ "type": "Feature", "properties": { "FLD_NAME": "Moho Marine", "COUNTRY": "Congo (Brazzaville)", "EUR_MMBOE": 600.0, "PRV_USGS_N": "West-central Coastal", "ERA": "Mesozoic", "SYSTEM": "Cretaceous", "SERIES": "Lower Cretaceous", "STAGE": null, "REFERENCES": "3, 40" }, "geometry": { "type": "Point", "coordinates": [ 11.23, -5.575 ] } },
{ "type": "Feature", "properties": { "FLD_NAME": "Mender", "COUNTRY": "UAE", "EUR_MMBOE": 532.833, "PRV_USGS_N": "Rub Al Khali Basin", "ERA": "Mesozoic", "SYSTEM": "Cretaceous", "SERIES": "Lower Cretaceous", "STAGE": null, "REFERENCES": "3, 38, 784" }, "geometry": { "type": "Point", "coordinates": [ 55.137, 22.714 ] } },
{ "type": "Feature", "properties": { "FLD_NAME": "Zarrarah", "COUNTRY": "UAE", "EUR_MMBOE": 1500.0, "PRV_USGS_N": "Rub Al Khali Basin", "ERA": "Mesozoic", "SYSTEM": "Cretaceous", "SERIES": "Lower Cretaceous", "STAGE": null, "REFERENCES": "3, 38, 831, 860" }, "geometry": { "type": "Point", "coordinates": [ 54.164, 22.778 ] } },
{ "type": "Feature", "properties": { "FLD_NAME": "Idd El Shargi North Dome", "COUNTRY": "Qatar", "EUR_MMBOE": 1138.392, "PRV_USGS_N": "Rub Al Khali Basin", "ERA": "Mesozoic", "SYSTEM": "Cretaceous", "SERIES": "Lower Cretaceous", "STAGE": null, "REFERENCES": "1, 2, 3, 733, 736" }, "geometry": { "type": "Point", "coordinates": [ 52.4, 25.5 ] } },
{ "type": "Feature", "properties": { "FLD_NAME": "Murban Bu Hasa", "COUNTRY": "UAE", "EUR_MMBOE": 13048.603, "PRV_USGS_N": "Rub Al Khali Basin", "ERA": "Mesozoic", "SYSTEM": "Cretaceous", "SERIES": "Lower Cretaceous", "STAGE": null, "REFERENCES": "1, 2, 3, 38, 831, 925, 1145" }, "geometry": { "type": "Point", "coordinates": [ 53.304, 23.551 ] } },
{ "type": "Feature", "properties": { "FLD_NAME": "Asab", "COUNTRY": "UAE", "EUR_MMBOE": 11091.193, "PRV_USGS_N": "Rub Al Khali Basin", "ERA": "Mesozoic", "SYSTEM": "Cretaceous", "SERIES": "Lower Cretaceous", "STAGE": null, "REFERENCES": "1, 2, 3, 38, 625, 627, 1145" }, "geometry": { "type": "Point", "coordinates": [ 54.222, 23.298 ] } },
{ "type": "Feature", "properties": { "FLD_NAME": "Sahil", "COUNTRY": "UAE", "EUR_MMBOE": 1363.623, "PRV_USGS_N": "Rub Al Khali Basin", "ERA": "Mesozoic", "SYSTEM": "Cretaceous", "SERIES": "Lower Cretaceous", "STAGE": null, "REFERENCES": "2, 3, 38, 861, 862, 1145" }, "geometry": { "type": "Point", "coordinates": [ 54.347, 23.665 ] } },
{ "type": "Feature", "properties": { "FLD_NAME": "Bab", "COUNTRY": "UAE", "EUR_MMBOE": 16508.368, "PRV_USGS_N": "Rub Al Khali Basin", "ERA": "Mesozoic", "SYSTEM": "Cretaceous", "SERIES": "Lower Cretaceous", "STAGE": null, "REFERENCES": "1, 2, 3, 38, 831, 1145" }, "geometry": { "type": "Point", "coordinates": [ 53.641, 23.846 ] } },
{ "type": "Feature", "properties": { "FLD_NAME": "Zakum", "COUNTRY": "UAE", "EUR_MMBOE": 23740.015, "PRV_USGS_N": "Rub Al Khali Basin", "ERA": "Mesozoic", "SYSTEM": "Cretaceous", "SERIES": "Lower Cretaceous", "STAGE": null, "REFERENCES": "1, 2, 3, 38, 854, 855, 856, 1145" }, "geometry": { "type": "Point", "coordinates": [ 53.701, 24.856 ] } },
{ "type": "Feature", "properties": { "FLD_NAME": "Gharraf", "COUNTRY": "Iraq", "EUR_MMBOE": 1130.0, "PRV_USGS_N": "Mesopotamian Foredeep Basin", "ERA": "Mesozoic", "SYSTEM": "Cretaceous", "SERIES": "Lower Cretaceous", "STAGE": null, "REFERENCES": "3, 647, 676, 673, 677, 883, 1145" }, "geometry": { "type": "Point", "coordinates": [ 46.076, 31.741 ] } },
{ "type": "Feature", "properties": { "FLD_NAME": "Minagish", "COUNTRY": "Kuwait", "EUR_MMBOE": 4232.05, "PRV_USGS_N": "Mesopotamian Foredeep Basin", "ERA": "Mesozoic", "SYSTEM": "Cretaceous", "SERIES": "Lower Cretaceous", "STAGE": null, "REFERENCES": "1, 2, 3, 706, 707, 1145" }, "geometry": { "type": "Point", "coordinates": [ 47.431, 29.2 ] } },
{ "type": "Feature", "properties": { "FLD_NAME": "Umm Gudair", "COUNTRY": "Kuwait", "EUR_MMBOE": 2962.162, "PRV_USGS_N": "Mesopotamian Foredeep Basin", "ERA": "Mesozoic", "SYSTEM": "Cretaceous", "SERIES": "Lower Cretaceous", "STAGE": null, "REFERENCES": "1, 2, 3, 38, 688, 711" }, "geometry": { "type": "Point", "coordinates": [ 47.722, 28.857 ] } },
{ "type": "Feature", "properties": { "FLD_NAME": "Umm Gudair South", "COUNTRY": "Kuwait", "EUR_MMBOE": 800.0, "PRV_USGS_N": "Mesopotamian Foredeep Basin", "ERA": "Mesozoic", "SYSTEM": "Cretaceous", "SERIES": "Lower Cretaceous", "STAGE": null, "REFERENCES": "1145, 1147" }, "geometry": { "type": "Point", "coordinates": [ 47.718, 28.809 ] } },
{ "type": "Feature", "properties": { "FLD_NAME": "Wafra", "COUNTRY": "Kuwait", "EUR_MMBOE": 3600.0, "PRV_USGS_N": "Mesopotamian Foredeep Basin", "ERA": "Mesozoic", "SYSTEM": "Cretaceous", "SERIES": "Lower Cretaceous", "STAGE": null, "REFERENCES": "1, 2, 3, 38, 718, 719, 1122, 1145" }, "geometry": { "type": "Point", "coordinates": [ 47.91, 28.591 ] } },
{ "type": "Feature", "properties": { "FLD_NAME": "Manifa", "COUNTRY": "Saudi Arabia", "EUR_MMBOE": 23911.167, "PRV_USGS_N": "Mesopotamian Foredeep Basin", "ERA": "Mesozoic", "SYSTEM": "Cretaceous", "SERIES": "Lower Cretaceous", "STAGE": null, "REFERENCES": "1, 2, 3, 811, 784, 806, 992, 1145" }, "geometry": { "type": "Point", "coordinates": [ 49.03, 27.723 ] } },
{ "type": "Feature", "properties": { "FLD_NAME": "Dukhan", "COUNTRY": "Qatar", "EUR_MMBOE": 7781.808, "PRV_USGS_N": "Greater Ghawar Uplift", "ERA": "Mesozoic", "SYSTEM": "Jurassic", "SERIES": "Upper Jurassic", "STAGE": null, "REFERENCES": "1, 2, 3, 733, 734, 735, 1145" }, "geometry": { "type": "Point", "coordinates": [ 50.784, 25.421 ] } },
{ "type": "Feature", "properties": { "FLD_NAME": "Jawb", "COUNTRY": "Saudi Arabia", "EUR_MMBOE": 800.0, "PRV_USGS_N": "Greater Ghawar Uplift", "ERA": "Mesozoic", "SYSTEM": "Jurassic", "SERIES": "Upper Jurassic", "STAGE": null, "REFERENCES": "3, 785, 803" }, "geometry": { "type": "Point", "coordinates": [ 50.417, 23.417 ] } },
{ "type": "Feature", "properties": { "FLD_NAME": "Jurayd", "COUNTRY": "Saudi Arabia", "EUR_MMBOE": 700.0, "PRV_USGS_N": "Mesopotamian Foredeep Basin", "ERA": "Mesozoic", "SYSTEM": "Jurassic", "SERIES": "Upper Jurassic", "STAGE": null, "REFERENCES": "3, 678" }, "geometry": { "type": "Point", "coordinates": [ 50.217, 27.4 ] } },
{ "type": "Feature", "properties": { "FLD_NAME": "Lughfah", "COUNTRY": "Saudi Arabia", "EUR_MMBOE": 1050.0, "PRV_USGS_N": "Greater Ghawar Uplift", "ERA": "Mesozoic", "SYSTEM": "Jurassic", "SERIES": "Upper Jurassic", "STAGE": null, "REFERENCES": "3, 808" }, "geometry": { "type": "Point", "coordinates": [ 50.467, 23.692 ] } },
{ "type": "Feature", "properties": { "FLD_NAME": "Sassan", "COUNTRY": "Iran", "EUR_MMBOE": 1900.0, "PRV_USGS_N": "Rub Al Khali Basin", "ERA": "Mesozoic", "SYSTEM": "Jurassic", "SERIES": "Upper Jurassic", "STAGE": null, "REFERENCES": "1, 2, 104" }, "geometry": { "type": "Point", "coordinates": [ 53.133, 25.517 ] } },
{ "type": "Feature", "properties": { "FLD_NAME": "Nasr", "COUNTRY": "UAE", "EUR_MMBOE": 2113.333, "PRV_USGS_N": "Rub Al Khali Basin", "ERA": "Mesozoic", "SYSTEM": "Jurassic", "SERIES": "Upper Jurassic", "STAGE": null, "REFERENCES": "3, 859" }, "geometry": { "type": "Point", "coordinates": [ 53.483, 25.331 ] } },
{ "type": "Feature", "properties": { "FLD_NAME": "Ghasha", "COUNTRY": "UAE", "EUR_MMBOE": 2900.0, "PRV_USGS_N": "Rub Al Khali Basin", "ERA": "Mesozoic", "SYSTEM": "Jurassic", "SERIES": "Upper Jurassic", "STAGE": null, "REFERENCES": "3, 786, 627" }, "geometry": { "type": "Point", "coordinates": [ 52.93, 24.576 ] } },
{ "type": "Feature", "properties": { "FLD_NAME": "Saath Al Raaz Boot", "COUNTRY": "UAE", "EUR_MMBOE": 1881.667, "PRV_USGS_N": "Rub Al Khali Basin", "ERA": "Mesozoic", "SYSTEM": "Jurassic", "SERIES": "Upper Jurassic", "STAGE": null, "REFERENCES": "2, 3, 786" }, "geometry": { "type": "Point", "coordinates": [ 53.199, 24.772 ] } },
{ "type": "Feature", "properties": { "FLD_NAME": "Abqaiq", "COUNTRY": "Saudi Arabia", "EUR_MMBOE": 21024.333, "PRV_USGS_N": "Greater Ghawar Uplift", "ERA": "Mesozoic", "SYSTEM": "Jurassic", "SERIES": "Upper Jurassic", "STAGE": null, "REFERENCES": "1, 2, 3, 780, 781, 782, 1142, 1145" }, "geometry": { "type": "Point", "coordinates": [ 49.685, 25.945 ] } },
{ "type": "Feature", "properties": { "FLD_NAME": "Abu Sa'fah", "COUNTRY": "Saudi Arabia", "EUR_MMBOE": 9746.0, "PRV_USGS_N": "Mesopotamian Foredeep Basin", "ERA": "Mesozoic", "SYSTEM": "Jurassic", "SERIES": "Upper Jurassic", "STAGE": null, "REFERENCES": "1, 2, 3, 787, 1145" }, "geometry": { "type": "Point", "coordinates": [ 50.484, 26.791 ] } },
{ "type": "Feature", "properties": { "FLD_NAME": "Berri", "COUNTRY": "Saudi Arabia", "EUR_MMBOE": 20517.0, "PRV_USGS_N": "Mesopotamian Foredeep Basin", "ERA": "Mesozoic", "SYSTEM": "Jurassic", "SERIES": "Upper Jurassic", "STAGE": null, "REFERENCES": "1, 2, 3, 791, 792, 1145" }, "geometry": { "type": "Point", "coordinates": [ 49.617, 26.983 ] } },
{ "type": "Feature", "properties": { "FLD_NAME": "Habari", "COUNTRY": "Saudi Arabia", "EUR_MMBOE": 700.0, "PRV_USGS_N": "Mesopotamian Foredeep Basin", "ERA": "Mesozoic", "SYSTEM": "Jurassic", "SERIES": "Upper Jurassic", "STAGE": null, "REFERENCES": "3, 66" }, "geometry": { "type": "Point", "coordinates": [ 47.848, 27.711 ] } },
{ "type": "Feature", "properties": { "FLD_NAME": "Harmaliyah", "COUNTRY": "Saudi Arabia", "EUR_MMBOE": 2205.5, "PRV_USGS_N": "Greater Ghawar Uplift", "ERA": "Mesozoic", "SYSTEM": "Jurassic", "SERIES": "Upper Jurassic", "STAGE": null, "REFERENCES": "2, 3, 797, 798" }, "geometry": { "type": "Point", "coordinates": [ 49.469, 24.561 ] } },
{ "type": "Feature", "properties": { "FLD_NAME": "Jaladi", "COUNTRY": "Saudi Arabia", "EUR_MMBOE": 1966.667, "PRV_USGS_N": "Mesopotamian Foredeep Basin", "ERA": "Mesozoic", "SYSTEM": "Jurassic", "SERIES": "Upper Jurassic", "STAGE": null, "REFERENCES": "2, 3, 803" }, "geometry": { "type": "Point", "coordinates": [ 48.615, 27.065 ] } },
{ "type": "Feature", "properties": { "FLD_NAME": "Karan", "COUNTRY": "Saudi Arabia", "EUR_MMBOE": 750.0, "PRV_USGS_N": "Mesopotamian Foredeep Basin", "ERA": "Mesozoic", "SYSTEM": "Jurassic", "SERIES": "Upper Jurassic", "STAGE": null, "REFERENCES": "3, 806" }, "geometry": { "type": "Point", "coordinates": [ 50.05, 27.717 ] } },
{ "type": "Feature", "properties": { "FLD_NAME": "Khurais", "COUNTRY": "Saudi Arabia", "EUR_MMBOE": 17506.667, "PRV_USGS_N": "Widyan Basin-Int. Platform", "ERA": "Mesozoic", "SYSTEM": "Jurassic", "SERIES": "Upper Jurassic", "STAGE": null, "REFERENCES": "1, 2, 3, 796,1145" }, "geometry": { "type": "Point", "coordinates": [ 48.066, 25.061 ] } },
{ "type": "Feature", "properties": { "FLD_NAME": "Qatif", "COUNTRY": "Saudi Arabia", "EUR_MMBOE": 9957.167, "PRV_USGS_N": "Mesopotamian Foredeep Basin", "ERA": "Mesozoic", "SYSTEM": "Jurassic", "SERIES": "Upper Jurassic", "STAGE": null, "REFERENCES": "1, 2, 3, 815, 816" }, "geometry": { "type": "Point", "coordinates": [ 49.848, 26.547 ] } },
{ "type": "Feature", "properties": { "FLD_NAME": "Sahba", "COUNTRY": "Saudi Arabia", "EUR_MMBOE": 583.333, "PRV_USGS_N": "Greater Ghawar Uplift", "ERA": "Mesozoic", "SYSTEM": "Jurassic", "SERIES": "Upper Jurassic", "STAGE": null, "REFERENCES": "3, 783" }, "geometry": { "type": "Point", "coordinates": [ 48.789, 24.163 ] } },
{ "type": "Feature", "properties": { "FLD_NAME": "Samin", "COUNTRY": "Saudi Arabia", "EUR_MMBOE": 750.0, "PRV_USGS_N": "Mesopotamian Foredeep Basin", "ERA": "Mesozoic", "SYSTEM": "Jurassic", "SERIES": "Upper Jurassic", "STAGE": null, "REFERENCES": "3, 665" }, "geometry": { "type": "Point", "coordinates": [ 49.267, 26.817 ] } },
{ "type": "Feature", "properties": { "FLD_NAME": "Wari'ah", "COUNTRY": "Saudi Arabia", "EUR_MMBOE": 816.667, "PRV_USGS_N": "Widyan Basin-Int. Platform", "ERA": "Mesozoic", "SYSTEM": "Jurassic", "SERIES": "Upper Jurassic", "STAGE": null, "REFERENCES": "3, 38, 805, 673" }, "geometry": { "type": "Point", "coordinates": [ 47.185, 27.696 ] } },
{ "type": "Feature", "properties": { "FLD_NAME": "Dhib", "COUNTRY": "Saudi Arabia", "EUR_MMBOE": 1566.667, "PRV_USGS_N": "Mesopotamian Foredeep Basin", "ERA": "Mesozoic", "SYSTEM": "Jurassic", "SERIES": "Upper Jurassic", "STAGE": null, "REFERENCES": "3, 663" }, "geometry": { "type": "Point", "coordinates": [ 47.833, 26.833 ] } },
{ "type": "Feature", "properties": { "FLD_NAME": "Dibdibah", "COUNTRY": "Saudi Arabia", "EUR_MMBOE": 733.333, "PRV_USGS_N": "Widyan Basin-Int. Platform", "ERA": "Mesozoic", "SYSTEM": "Jurassic", "SERIES": "Upper Jurassic", "STAGE": null, "REFERENCES": "3, 671" }, "geometry": { "type": "Point", "coordinates": [ 47.24, 28.266 ] } },
{ "type": "Feature", "properties": { "FLD_NAME": "Hamd", "COUNTRY": "Saudi Arabia", "EUR_MMBOE": 766.667, "PRV_USGS_N": "Widyan Basin-Int. Platform", "ERA": "Mesozoic", "SYSTEM": "Jurassic", "SERIES": "Upper Jurassic", "STAGE": null, "REFERENCES": "3, 795" }, "geometry": { "type": "Point", "coordinates": [ 46.749, 28.231 ] } },
{ "type": "Feature", "properties": { "FLD_NAME": "Rimthan", "COUNTRY": "Saudi Arabia", "EUR_MMBOE": 791.667, "PRV_USGS_N": "Widyan Basin-Int. Platform", "ERA": "Mesozoic", "SYSTEM": "Jurassic", "SERIES": "Upper Jurassic", "STAGE": null, "REFERENCES": "2, 671, 817" }, "geometry": { "type": "Point", "coordinates": [ 47.067, 28.483 ] } },
{ "type": "Feature", "properties": { "FLD_NAME": "Suban", "COUNTRY": "Saudi Arabia", "EUR_MMBOE": 1000.0, "PRV_USGS_N": "Widyan Basin-Int. Platform", "ERA": "Mesozoic", "SYSTEM": "Jurassic", "SERIES": "Upper Jurassic", "STAGE": null, "REFERENCES": "3, 68" }, "geometry": { "type": "Point", "coordinates": [ 47.018, 27.878 ] } },
{ "type": "Feature", "properties": { "FLD_NAME": "Abu Hadriya", "COUNTRY": "Saudi Arabia", "EUR_MMBOE": 1851.833, "PRV_USGS_N": "Mesopotamian Foredeep Basin", "ERA": "Mesozoic", "SYSTEM": "Jurassic", "SERIES": "Upper Jurassic", "STAGE": null, "REFERENCES": "1, 2, 3, 784, 785, 1145" }, "geometry": { "type": "Point", "coordinates": [ 48.971, 27.316 ] } },
{ "type": "Feature", "properties": { "FLD_NAME": "Sadawi", "COUNTRY": "Saudi Arabia", "EUR_MMBOE": 783.333, "PRV_USGS_N": "Widyan Basin-Int. Platform", "ERA": "Mesozoic", "SYSTEM": "Jurassic", "SERIES": "Upper Jurassic", "STAGE": null, "REFERENCES": "3, 663" }, "geometry": { "type": "Point", "coordinates": [ 46.714, 27.968 ] } },
{ "type": "Feature", "properties": { "FLD_NAME": "Maghrib", "COUNTRY": "Saudi Arabia", "EUR_MMBOE": 683.333, "PRV_USGS_N": "Rub Al Khali Basin", "ERA": "Mesozoic", "SYSTEM": "Jurassic", "SERIES": "Upper Jurassic", "STAGE": null, "REFERENCES": "3, 795" }, "geometry": { "type": "Point", "coordinates": [ 52.417, 22.833 ] } },
{ "type": "Feature", "properties": { "FLD_NAME": "Sharar", "COUNTRY": "Saudi Arabia", "EUR_MMBOE": 2116.667, "PRV_USGS_N": "Mesopotamian Foredeep Basin", "ERA": "Mesozoic", "SYSTEM": "Jurassic", "SERIES": "Middle Jurassic", "STAGE": null, "REFERENCES": "3, 38, 66" }, "geometry": { "type": "Point", "coordinates": [ 48.726, 27.725 ] } },
{ "type": "Feature", "properties": { "FLD_NAME": "Mamontovo", "COUNTRY": "Russia", "EUR_MMBOE": 1750.0, "PRV_USGS_N": "West Siberian Basin", "ERA": "Mesozoic", "SYSTEM": "Jurassic", "SERIES": "Middle Jurassic", "STAGE": null, "REFERENCES": "1, 2, 747, 914" }, "geometry": { "type": "Point", "coordinates": [ 72.666, 61.3 ] } },
{ "type": "Feature", "properties": { "FLD_NAME": "Forties", "COUNTRY": "United Kingdom", "EUR_MMBOE": 2000.0, "PRV_USGS_N": "North Sea Graben", "ERA": "Mesozoic", "SYSTEM": "Jurassic", "SERIES": "Lower Jurassic", "STAGE": null, "REFERENCES": "2, 38, 63, 134" }, "geometry": { "type": "Point", "coordinates": [ 0.967, 57.733 ] } },
{ "type": "Feature", "properties": { "FLD_NAME": "Mazalij", "COUNTRY": "Saudi Arabia", "EUR_MMBOE": 675.0, "PRV_USGS_N": "Widyan Basin-Int. Platform", "ERA": "Mesozoic", "SYSTEM": "Jurassic", "SERIES": "Lower Jurassic", "STAGE": null, "REFERENCES": "2, 813, 814" }, "geometry": { "type": "Point", "coordinates": [ 48.111, 24.39 ] } },
{ "type": "Feature", "properties": { "FLD_NAME": "Jana", "COUNTRY": "Saudi Arabia", "EUR_MMBOE": 500.0, "PRV_USGS_N": "Mesopotamian Foredeep Basin", "ERA": "Mesozoic", "SYSTEM": "Jurassic", "SERIES": "Lower Jurassic", "STAGE": null, "REFERENCES": "2, 804" }, "geometry": { "type": "Point", "coordinates": [ 48.75, 27.5 ] } },
{ "type": "Feature", "properties": { "FLD_NAME": "Khashman", "COUNTRY": "Kuwait", "EUR_MMBOE": 561.667, "PRV_USGS_N": "Mesopotamian Foredeep Basin", "ERA": "Mesozoic", "SYSTEM": "Jurassic", "SERIES": "Lower Jurassic", "STAGE": null, "REFERENCES": "3, 705" }, "geometry": { "type": "Point", "coordinates": [ 47.873, 29.237 ] } },
{ "type": "Feature", "properties": { "FLD_NAME": "Usinskoye", "COUNTRY": "Russia", "EUR_MMBOE": 3100.0, "PRV_USGS_N": "Timan-Pechora Basin", "ERA": "Paleozoic", "SYSTEM": "Permian", "SERIES": "Guadalupian", "STAGE": null, "REFERENCES": "2, 120, 121" }, "geometry": { "type": "Point", "coordinates": [ 57.366, 66.165 ] } },
{ "type": "Feature", "properties": { "FLD_NAME": "Wasson", "COUNTRY": "United States", "EUR_MMBOE": 2263.291, "PRV_USGS_N": "Permian Basin", "ERA": "Paleozoic", "SYSTEM": "Permian", "SERIES": "Guadalupian", "STAGE": null, "REFERENCES": "1, 2, 6, 38, 396" }, "geometry": { "type": "Point", "coordinates": [ -102.805, 32.997 ] } },
{ "type": "Feature", "properties": { "FLD_NAME": "Goldsmith", "COUNTRY": "United States", "EUR_MMBOE": 866.0, "PRV_USGS_N": "Permian Basin", "ERA": "Paleozoic", "SYSTEM": "Permian", "SERIES": "Cisuralian", "STAGE": null, "REFERENCES": "1, 2, 410" }, "geometry": { "type": "Point", "coordinates": [ -102.47, 31.75 ] } },
{ "type": "Feature", "properties": { "FLD_NAME": "Seminole", "COUNTRY": "United States", "EUR_MMBOE": 718.829, "PRV_USGS_N": "Permian Basin", "ERA": "Paleozoic", "SYSTEM": "Permian", "SERIES": "Cisuralian", "STAGE": null, "REFERENCES": "2, 6, 404, 405" }, "geometry": { "type": "Point", "coordinates": [ -102.667, 32.5 ] } },
{ "type": "Feature", "properties": { "FLD_NAME": "Cowden South", "COUNTRY": "United States", "EUR_MMBOE": 589.333, "PRV_USGS_N": "Permian Basin", "ERA": "Paleozoic", "SYSTEM": "Permian", "SERIES": "Cisuralian", "STAGE": null, "REFERENCES": "1, 2, 6, 38, 399" }, "geometry": { "type": "Point", "coordinates": [ -102.42, 31.744 ] } },
{ "type": "Feature", "properties": { "FLD_NAME": "McElroy", "COUNTRY": "United States", "EUR_MMBOE": 578.49, "PRV_USGS_N": "Permian Basin", "ERA": "Paleozoic", "SYSTEM": "Permian", "SERIES": "Cisuralian", "STAGE": null, "REFERENCES": "2, 6, 38, 414" }, "geometry": { "type": "Point", "coordinates": [ -102.309, 31.385 ] } },
{ "type": "Feature", "properties": { "FLD_NAME": "Fullerton", "COUNTRY": "United States", "EUR_MMBOE": 565.0, "PRV_USGS_N": "Permian Basin", "ERA": "Paleozoic", "SYSTEM": "Permian", "SERIES": "Cisuralian", "STAGE": null, "REFERENCES": "2, 406, 407" }, "geometry": { "type": "Point", "coordinates": [ -102.667, 32.167 ] } },
{ "type": "Feature", "properties": { "FLD_NAME": "Blinebry-Drinkard", "COUNTRY": "United States", "EUR_MMBOE": 506.0, "PRV_USGS_N": "Permian Basin", "ERA": "Paleozoic", "SYSTEM": "Permian", "SERIES": "Cisuralian", "STAGE": null, "REFERENCES": "2, 38, 838" }, "geometry": { "type": "Point", "coordinates": [ -103.26, 32.886 ] } },
{ "type": "Feature", "properties": { "FLD_NAME": "Cowden North", "COUNTRY": "United States", "EUR_MMBOE": 500.0, "PRV_USGS_N": "Permian Basin", "ERA": "Paleozoic", "SYSTEM": "Permian", "SERIES": "Cisuralian", "STAGE": null, "REFERENCES": "2, 38, 408, 409" }, "geometry": { "type": "Point", "coordinates": [ -102.515, 32.041 ] } },
{ "type": "Feature", "properties": { "FLD_NAME": "Sand Hills", "COUNTRY": "United States", "EUR_MMBOE": 511.0, "PRV_USGS_N": "Permian Basin", "ERA": "Paleozoic", "SYSTEM": "Ordovician", "SERIES": "Upper Ordovician", "STAGE": null, "REFERENCES": "2, 413" }, "geometry": { "type": "Point", "coordinates": [ -102.328, 31.45 ] } },
{ "type": "Feature", "properties": { "FLD_NAME": "Illinois", "COUNTRY": "United States", "EUR_MMBOE": 675.0, "PRV_USGS_N": "Illinois Basin", "ERA": "Paleozoic", "SYSTEM": "Carboniferous", "SERIES": "Mississippian", "STAGE": null, "REFERENCES": "1, 374, 375, 376" }, "geometry": { "type": "Point", "coordinates": [ -88.667, 38.0 ] } },
{ "type": "Feature", "properties": { "FLD_NAME": "Lima-Indiana", "COUNTRY": "United States", "EUR_MMBOE": 514.0, "PRV_USGS_N": "Cincinnati Arch", "ERA": "Paleozoic", "SYSTEM": "Ordovician", "SERIES": "Middle Ordovician", "STAGE": null, "REFERENCES": "1, 31" }, "geometry": { "type": "Point", "coordinates": [ -84.8, 40.5 ] } },
{ "type": "Feature", "properties": { "FLD_NAME": "Agha Jari", "COUNTRY": "Iran", "EUR_MMBOE": 19025.468, "PRV_USGS_N": "Zagros Fold Belt", "ERA": "Cenozoic", "SYSTEM": "Neogene", "SERIES": "Miocene", "STAGE": null, "REFERENCES": "1, 2, 3, 643, 1094" }, "geometry": { "type": "Point", "coordinates": [ 49.823, 30.721 ] } },
{ "type": "Feature", "properties": { "FLD_NAME": "Mansuri", "COUNTRY": "Iran", "EUR_MMBOE": 3532.935, "PRV_USGS_N": "Mesopotamian Foredeep Basin", "ERA": "Cenozoic", "SYSTEM": "Paleogene", "SERIES": "Oligocene", "STAGE": null, "REFERENCES": "1, 2, 3, 646, 1094" }, "geometry": { "type": "Point", "coordinates": [ 48.857, 30.922 ] } },
{ "type": "Feature", "properties": { "FLD_NAME": "Emam Hassan", "COUNTRY": "Iran", "EUR_MMBOE": 600.0, "PRV_USGS_N": "Zagros Fold Belt", "ERA": "Mesozoic", "SYSTEM": "Cretaceous", "SERIES": "Upper Cretaceous", "STAGE": null, "REFERENCES": "3, 650" }, "geometry": { "type": "Point", "coordinates": [ 45.786, 34.38 ] } },
{ "type": "Feature", "properties": { "FLD_NAME": "Chutyr-Kiyengop", "COUNTRY": "Russia", "EUR_MMBOE": 542.0, "PRV_USGS_N": "Volga-Ural Region", "ERA": "Paleozoic", "SYSTEM": "Carboniferous", "SERIES": "Mississippian", "STAGE": null, "REFERENCES": "3, 38, 123" }, "geometry": { "type": "Point", "coordinates": [ 53.327, 57.259 ] } },
{ "type": "Feature", "properties": { "FLD_NAME": "Cerro Azul", "COUNTRY": "Mexico", "EUR_MMBOE": 1250.0, "PRV_USGS_N": "Tampico-Misantla Basin", "ERA": "Mesozoic", "SYSTEM": "Cretaceous", "SERIES": null, "STAGE": null, "REFERENCES": "1, 2, 435" }, "geometry": { "type": "Point", "coordinates": [ -97.735, 21.359 ] } },
{ "type": "Feature", "properties": { "FLD_NAME": "Sirri D", "COUNTRY": "Iran", "EUR_MMBOE": 750.0, "PRV_USGS_N": "Rub Al Khali Basin", "ERA": "Mesozoic", "SYSTEM": "Cretaceous", "SERIES": "Upper Cretaceous", "STAGE": null, "REFERENCES": "3, 38, 60" }, "geometry": { "type": "Point", "coordinates": [ 54.283, 25.65 ] } },
{ "type": "Feature", "properties": { "FLD_NAME": "Ekofisk", "COUNTRY": "Norway", "EUR_MMBOE": 4451.667, "PRV_USGS_N": "North Sea Graben", "ERA": "Cenozoic", "SYSTEM": "Paleogene", "SERIES": "Paleocene", "STAGE": null, "REFERENCES": "1, 2, 3, 38, 63, 513, 520" }, "geometry": { "type": "Point", "coordinates": [ 3.198, 56.536 ] } },
{ "type": "Feature", "properties": { "FLD_NAME": "Umm Al-Dalkh", "COUNTRY": "UAE", "EUR_MMBOE": 800.16, "PRV_USGS_N": "Rub Al Khali Basin", "ERA": "Mesozoic", "SYSTEM": "Cretaceous", "SERIES": null, "STAGE": null, "REFERENCES": "2, 3, 38, 104, 863" }, "geometry": { "type": "Point", "coordinates": [ 54.152, 24.609 ] } },
{ "type": "Feature", "properties": { "FLD_NAME": "Yibal", "COUNTRY": "Oman", "EUR_MMBOE": 2081.493, "PRV_USGS_N": "Fahud Salt Basin", "ERA": "Mesozoic", "SYSTEM": "Cretaceous", "SERIES": "Lower Cretaceous", "STAGE": null, "REFERENCES": "2, 3, 38, 624" }, "geometry": { "type": "Point", "coordinates": [ 56.048, 22.164 ] } },
{ "type": "Feature", "properties": { "FLD_NAME": "Dammam", "COUNTRY": "Saudi Arabia", "EUR_MMBOE": 1306.177, "PRV_USGS_N": "Greater Ghawar Uplift", "ERA": "Mesozoic", "SYSTEM": "Jurassic", "SERIES": "Upper Jurassic", "STAGE": null, "REFERENCES": "1, 2, 3, 793, 794" }, "geometry": { "type": "Point", "coordinates": [ 50.127, 26.318 ] } },
{ "type": "Feature", "properties": { "FLD_NAME": "Khursaniyah", "COUNTRY": "Saudi Arabia", "EUR_MMBOE": 4996.0, "PRV_USGS_N": "Mesopotamian Foredeep Basin", "ERA": "Mesozoic", "SYSTEM": "Jurassic", "SERIES": "Upper Jurassic", "STAGE": null, "REFERENCES": "1, 2, 3, 784, 806, 807, 1145" }, "geometry": { "type": "Point", "coordinates": [ 49.225, 27.215 ] } },
{ "type": "Feature", "properties": { "FLD_NAME": "Umm Shaif", "COUNTRY": "UAE", "EUR_MMBOE": 11488.893, "PRV_USGS_N": "Rub Al Khali Basin", "ERA": "Mesozoic", "SYSTEM": "Jurassic", "SERIES": "Upper Jurassic", "STAGE": null, "REFERENCES": "1, 2, 3, 38, 857, 858, 1145" }, "geometry": { "type": "Point", "coordinates": [ 53.219, 25.2 ] } },
{ "type": "Feature", "properties": { "FLD_NAME": "Ghawar", "COUNTRY": "Saudi Arabia", "EUR_MMBOE": 106041.167, "PRV_USGS_N": "Greater Ghawar Uplift", "ERA": "Mesozoic", "SYSTEM": "Jurassic", "SERIES": "Upper Jurassic", "STAGE": null, "REFERENCES": "1, 2, 3, 443, 444, 1132, 1177" }, "geometry": { "type": "Point", "coordinates": [ 49.233, 25.933 ] } },
{ "type": "Feature", "properties": { "FLD_NAME": "Paredon", "COUNTRY": "Mexico", "EUR_MMBOE": 500.0, "PRV_USGS_N": "Villahermosa Uplift", "ERA": "Mesozoic", "SYSTEM": "Cretaceous", "SERIES": "Lower Cretaceous", "STAGE": null, "REFERENCES": "3, 38, 82" }, "geometry": { "type": "Point", "coordinates": [ -93.375, 17.966 ] } },
{ "type": "Feature", "properties": { "FLD_NAME": "Abkatun-Pol-Chuc", "COUNTRY": "Mexico", "EUR_MMBOE": 6858.244, "PRV_USGS_N": "Saline-Comalcalco Basin", "ERA": "Cenozoic", "SYSTEM": "Paleogene", "SERIES": "Paleocene", "STAGE": null, "REFERENCES": "2, 3, 335, 338, 437" }, "geometry": { "type": "Point", "coordinates": [ -92.867, 19.317 ] } },
{ "type": "Feature", "properties": { "FLD_NAME": "Sitio Grande", "COUNTRY": "Mexico", "EUR_MMBOE": 765.0, "PRV_USGS_N": "Villahermosa Uplift", "ERA": "Mesozoic", "SYSTEM": "Cretaceous", "SERIES": null, "STAGE": null, "REFERENCES": "2, 338" }, "geometry": { "type": "Point", "coordinates": [ -92.95, 17.854 ] } },
{ "type": "Feature", "properties": { "FLD_NAME": "Bombay High", "COUNTRY": "India", "EUR_MMBOE": 1431.667, "PRV_USGS_N": "Bombay", "ERA": "Cenozoic", "SYSTEM": "Neogene", "SERIES": "Miocene", "STAGE": null, "REFERENCES": "2. 292, 293" }, "geometry": { "type": "Point", "coordinates": [ 71.4, 19.567 ] } },
{ "type": "Feature", "properties": { "FLD_NAME": "Fahud", "COUNTRY": "Oman", "EUR_MMBOE": 900.0, "PRV_USGS_N": "Fahud Salt Basin", "ERA": "Mesozoic", "SYSTEM": "Cretaceous", "SERIES": null, "STAGE": null, "REFERENCES": "1, 2, 38, 622" }, "geometry": { "type": "Point", "coordinates": [ 56.45, 22.316 ] } },
{ "type": "Feature", "properties": { "FLD_NAME": "Natih", "COUNTRY": "Oman", "EUR_MMBOE": 1000.0, "PRV_USGS_N": "Fahud Salt Basin", "ERA": "Mesozoic", "SYSTEM": "Cretaceous", "SERIES": null, "STAGE": null, "REFERENCES": "1, 2, 38, 634" }, "geometry": { "type": "Point", "coordinates": [ 56.702, 22.446 ] } },
{ "type": "Feature", "properties": { "FLD_NAME": "Panuco", "COUNTRY": "Mexico", "EUR_MMBOE": 971.0, "PRV_USGS_N": "Tampico-Misantla Basin", "ERA": "Mesozoic", "SYSTEM": "Cretaceous", "SERIES": null, "STAGE": null, "REFERENCES": "1, 2, 435" }, "geometry": { "type": "Point", "coordinates": [ -98.185, 22.065 ] } },
{ "type": "Feature", "properties": { "FLD_NAME": "La Paz", "COUNTRY": "Venezuela", "EUR_MMBOE": 900.0, "PRV_USGS_N": "Maracaibo Basin", "ERA": "Mesozoic", "SYSTEM": "Cretaceous", "SERIES": null, "STAGE": null, "REFERENCES": "1, 2, 38, 576" }, "geometry": { "type": "Point", "coordinates": [ -72.0, 10.667 ] } },
{ "type": "Feature", "properties": { "FLD_NAME": "Raguba", "COUNTRY": "Libya", "EUR_MMBOE": 1000.0, "PRV_USGS_N": "Sirte Basin", "ERA": "Mesozoic", "SYSTEM": "Cretaceous", "SERIES": "Upper Cretaceous", "STAGE": null, "REFERENCES": "1, 2, 38, 484" }, "geometry": { "type": "Point", "coordinates": [ 19.07, 29.075 ] } },
{ "type": "Feature", "properties": { "FLD_NAME": "Vega East", "COUNTRY": "Italy", "EUR_MMBOE": 625.0, "PRV_USGS_N": "Sicily", "ERA": "Mesozoic", "SYSTEM": "Jurassic", "SERIES": "Lower Jurassic", "STAGE": null, "REFERENCES": "2, 492" }, "geometry": { "type": "Point", "coordinates": [ 14.633, 36.533 ] } },
{ "type": "Feature", "properties": { "FLD_NAME": "Keystone", "COUNTRY": "United States", "EUR_MMBOE": 564.0, "PRV_USGS_N": "Permian Basin", "ERA": "Paleozoic", "SYSTEM": "Permian", "SERIES": "Cisuralian", "STAGE": null, "REFERENCES": "2, 38, 836, 837" }, "geometry": { "type": "Point", "coordinates": [ -103.0, 31.917 ] } },
{ "type": "Feature", "properties": { "FLD_NAME": "Ixtoc", "COUNTRY": "Mexico", "EUR_MMBOE": 800.0, "PRV_USGS_N": "Villahermosa Uplift", "ERA": "Cenozoic", "SYSTEM": "Paleogene", "SERIES": "Paleocene", "STAGE": null, "REFERENCES": "2, 339, 340, 437" }, "geometry": { "type": "Point", "coordinates": [ -92.333, 19.65 ] } },
{ "type": "Feature", "properties": { "FLD_NAME": "Iris", "COUNTRY": "Mexico", "EUR_MMBOE": 1666.667, "PRV_USGS_N": "Saline-Comalcalco Basin", "ERA": "Mesozoic", "SYSTEM": "Cretaceous", "SERIES": null, "STAGE": null, "REFERENCES": "2, 82, 434" }, "geometry": { "type": "Point", "coordinates": [ -93.75, 17.658 ] } },
{ "type": "Feature", "properties": { "FLD_NAME": "Samaria", "COUNTRY": "Mexico", "EUR_MMBOE": 9916.667, "PRV_USGS_N": "Villahermosa Uplift", "ERA": "Mesozoic", "SYSTEM": "Cretaceous", "SERIES": null, "STAGE": null, "REFERENCES": "2, 336, 338" }, "geometry": { "type": "Point", "coordinates": [ -93.133, 17.967 ] } },
{ "type": "Feature", "properties": { "FLD_NAME": "Cactus", "COUNTRY": "Mexico", "EUR_MMBOE": 2165.0, "PRV_USGS_N": "Villahermosa Uplift", "ERA": "Mesozoic", "SYSTEM": "Cretaceous", "SERIES": null, "STAGE": null, "REFERENCES": "2, 82, 434, 435" }, "geometry": { "type": "Point", "coordinates": [ -93.183, 17.894 ] } },
{ "type": "Feature", "properties": { "FLD_NAME": "Jujo", "COUNTRY": "Mexico", "EUR_MMBOE": 500.0, "PRV_USGS_N": "Villahermosa Uplift", "ERA": "Mesozoic", "SYSTEM": "Jurassic", "SERIES": "Upper Jurassic", "STAGE": null, "REFERENCES": "3, 38, 82, 1034" }, "geometry": { "type": "Point", "coordinates": [ -93.49, 17.87 ] } },
{ "type": "Feature", "properties": { "FLD_NAME": "Hamrin", "COUNTRY": "Iraq", "EUR_MMBOE": 713.333, "PRV_USGS_N": "Zagros Fold Belt", "ERA": "Cenozoic", "SYSTEM": "Paleogene", "SERIES": "Oligocene", "STAGE": null, "REFERENCES": "2, 3, 647, 680" }, "geometry": { "type": "Point", "coordinates": [ 44.051, 34.838 ] } },
{ "type": "Feature", "properties": { "FLD_NAME": "Renqiu", "COUNTRY": "China", "EUR_MMBOE": 2000.0, "PRV_USGS_N": "Bohaiwan Basin", "ERA": "Neo-Proterozoic", "SYSTEM": "Ediacaran", "SERIES": null, "STAGE": null, "REFERENCES": "2, 246, 247, 248" }, "geometry": { "type": "Point", "coordinates": [ 116.0, 38.75 ] } },
{ "type": "Feature", "properties": { "FLD_NAME": "Yates", "COUNTRY": "United States", "EUR_MMBOE": 1954.851, "PRV_USGS_N": "Permian Basin", "ERA": "Paleozoic", "SYSTEM": "Permian", "SERIES": "Cisuralian", "STAGE": null, "REFERENCES": "1, 2, 6, 38, 416, 417" }, "geometry": { "type": "Point", "coordinates": [ -101.948, 30.888 ] } },
{ "type": "Feature", "properties": { "FLD_NAME": "Tengiz", "COUNTRY": "Kazakhstan", "EUR_MMBOE": 7811.913, "PRV_USGS_N": "North Caspian Basin", "ERA": "Paleozoic", "SYSTEM": "Carboniferous", "SERIES": "Mississippian", "STAGE": null, "REFERENCES": "3, 38, 111, 563, 947, 955. 1119" }, "geometry": { "type": "Point", "coordinates": [ 53.377, 46.062 ] } },
{ "type": "Feature", "properties": { "FLD_NAME": "Zhanazhol", "COUNTRY": "Kazakhstan", "EUR_MMBOE": 1722.767, "PRV_USGS_N": "North Caspian Basin", "ERA": "Paleozoic", "SYSTEM": "Carboniferous", "SERIES": "Mississippian", "STAGE": null, "REFERENCES": "3, 38, , 111, 697, 701, 947" }, "geometry": { "type": "Point", "coordinates": [ 57.442, 48.318 ] } },
{ "type": "Feature", "properties": { "FLD_NAME": "Talakan", "COUNTRY": "Russia", "EUR_MMBOE": 731.167, "PRV_USGS_N": "Nepa-Botuoba Arch", "ERA": "Neo-Proterozoic", "SYSTEM": "Ediacaran", "SERIES": null, "STAGE": null, "REFERENCES": "3, 38, 768" }, "geometry": { "type": "Point", "coordinates": [ 110.973, 59.827 ] } },
{ "type": "Feature", "properties": { "FLD_NAME": "Intisar (Idris) \"A\"", "COUNTRY": "Libya", "EUR_MMBOE": 1200.0, "PRV_USGS_N": "Sirte Basin", "ERA": "Cenozoic", "SYSTEM": "Paleogene", "SERIES": "Paleocene", "STAGE": null, "REFERENCES": "1, 2, 38, 480" }, "geometry": { "type": "Point", "coordinates": [ 20.779, 29.043 ] } },
{ "type": "Feature", "properties": { "FLD_NAME": "Intisar (Idris) \"D\"", "COUNTRY": "Libya", "EUR_MMBOE": 1500.0, "PRV_USGS_N": "Sirte Basin", "ERA": "Cenozoic", "SYSTEM": "Paleogene", "SERIES": "Paleocene", "STAGE": null, "REFERENCES": "1, 2, 38, 477" }, "geometry": { "type": "Point", "coordinates": [ 20.958, 28.91 ] } },
{ "type": "Feature", "properties": { "FLD_NAME": "Mabruk", "COUNTRY": "Libya", "EUR_MMBOE": 500.0, "PRV_USGS_N": "Sirte Basin", "ERA": "Cenozoic", "SYSTEM": "Paleogene", "SERIES": "Paleocene", "STAGE": null, "REFERENCES": "2, 488" }, "geometry": { "type": "Point", "coordinates": [ 17.283, 29.95 ] } },
{ "type": "Feature", "properties": { "FLD_NAME": "Lekhwair", "COUNTRY": "Oman", "EUR_MMBOE": 650.0, "PRV_USGS_N": "Rub Al Khali Basin", "ERA": "Mesozoic", "SYSTEM": "Cretaceous", "SERIES": "Lower Cretaceous", "STAGE": null, "REFERENCES": "3, 38, 94, 95, 96" }, "geometry": { "type": "Point", "coordinates": [ 55.291, 22.882 ] } },
{ "type": "Feature", "properties": { "FLD_NAME": "Vacuum", "COUNTRY": "United States", "EUR_MMBOE": 524.0, "PRV_USGS_N": "Permian Basin", "ERA": "Paleozoic", "SYSTEM": "Permian", "SERIES": "Cisuralian", "STAGE": null, "REFERENCES": "2, 38, 397, 398" }, "geometry": { "type": "Point", "coordinates": [ -103.265, 32.892 ] } },
{ "type": "Feature", "properties": { "FLD_NAME": "Scurry", "COUNTRY": "United States", "EUR_MMBOE": 1924.333, "PRV_USGS_N": "Permian Basin", "ERA": "Paleozoic", "SYSTEM": "Carboniferous", "SERIES": "Mississippian", "STAGE": null, "REFERENCES": "1, 2, 400, 401" }, "geometry": { "type": "Point", "coordinates": [ -100.961, 32.792 ] } },
{ "type": "Feature", "properties": { "FLD_NAME": "Leduc-Woodbend", "COUNTRY": "Canada", "EUR_MMBOE": 500.0, "PRV_USGS_N": "Alberta Basin", "ERA": "Paleozoic", "SYSTEM": "Devonian", "SERIES": "Upper Devonian", "STAGE": null, "REFERENCES": "1, 2, 38, 201, 202" }, "geometry": { "type": "Point", "coordinates": [ -113.933, 53.002 ] } },
{ "type": "Feature", "properties": { "FLD_NAME": "Bonnie Glen", "COUNTRY": "Canada", "EUR_MMBOE": 570.0, "PRV_USGS_N": "Alberta Basin", "ERA": "Paleozoic", "SYSTEM": "Devonian", "SERIES": "Upper Devonian", "STAGE": null, "REFERENCES": "2, 38, 192, 193, 194" }, "geometry": { "type": "Point", "coordinates": [ -112.83, 53.015 ] } },
{ "type": "Feature", "properties": { "FLD_NAME": "Swan Hills South", "COUNTRY": "Canada", "EUR_MMBOE": 510.0, "PRV_USGS_N": "Alberta Basin", "ERA": "Paleozoic", "SYSTEM": "Devonian", "SERIES": "Upper Devonian", "STAGE": null, "REFERENCES": "2, 38, 208" }, "geometry": { "type": "Point", "coordinates": [ -115.473, 54.671 ] } },
{ "type": "Feature", "properties": { "FLD_NAME": "Judy Creek", "COUNTRY": "Canada", "EUR_MMBOE": 600.0, "PRV_USGS_N": "Alberta Basin", "ERA": "Paleozoic", "SYSTEM": "Devonian", "SERIES": "Upper Devonian", "STAGE": null, "REFERENCES": "2, 38, 197, 198" }, "geometry": { "type": "Point", "coordinates": [ -115.647, 54.404 ] } },
{ "type": "Feature", "properties": { "FLD_NAME": "Swan Hills", "COUNTRY": "Canada", "EUR_MMBOE": 931.0, "PRV_USGS_N": "Alberta Basin", "ERA": "Paleozoic", "SYSTEM": "Devonian", "SERIES": "Upper Devonian", "STAGE": null, "REFERENCES": "1, 2, 38, 207" }, "geometry": { "type": "Point", "coordinates": [ -115.464, 54.856 ] } },
{ "type": "Feature", "properties": { "FLD_NAME": "Kaybob South", "COUNTRY": "Canada", "EUR_MMBOE": 956.667, "PRV_USGS_N": "Alberta Basin", "ERA": "Paleozoic", "SYSTEM": "Devonian", "SERIES": "Upper Devonian", "STAGE": null, "REFERENCES": "2, 38, 200, 199" }, "geometry": { "type": "Point", "coordinates": [ -115.7, 54.341 ] } },
{ "type": "Feature", "properties": { "FLD_NAME": "Tazhong-82", "COUNTRY": "China", "EUR_MMBOE": 666.0, "PRV_USGS_N": "Tarim Basin", "ERA": "Paleozoic", "SYSTEM": "Cambrian", "SERIES": "Furongian", "STAGE": null, "REFERENCES": "1028, 1029" }, "geometry": { "type": "Point", "coordinates": [ 83.0, 39.0 ] } },
{ "type": "Feature", "properties": { "FLD_NAME": "Redwater", "COUNTRY": "Canada", "EUR_MMBOE": 832.0, "PRV_USGS_N": "Alberta Basin", "ERA": "Paleozoic", "SYSTEM": "Devonian", "SERIES": "Upper Devonian", "STAGE": null, "REFERENCES": "1, 2, 38, 205, 206" }, "geometry": { "type": "Point", "coordinates": [ -113.016, 53.917 ] } },
{ "type": "Feature", "properties": { "FLD_NAME": "Rainbow", "COUNTRY": "Canada", "EUR_MMBOE": 720.0, "PRV_USGS_N": "Alberta Basin", "ERA": "Paleozoic", "SYSTEM": "Devonian", "SERIES": "Upper Devonian", "STAGE": null, "REFERENCES": "1, 32, 33" }, "geometry": { "type": "Point", "coordinates": [ -119.197, 58.576 ] } },
{ "type": "Feature", "properties": { "FLD_NAME": "Farhah", "COUNTRY": "Saudi Arabia", "EUR_MMBOE": 623.333, "PRV_USGS_N": "Widyan Basin-Int. Platform", "ERA": "Mesozoic", "SYSTEM": "Jurassic", "SERIES": "Upper Jurassic", "STAGE": null, "REFERENCES": "3, 671" }, "geometry": { "type": "Point", "coordinates": [ 48.0, 24.617 ] } },
{ "type": "Feature", "properties": { "FLD_NAME": "Halfdan", "COUNTRY": "Denmark", "EUR_MMBOE": 545.487, "PRV_USGS_N": "North Sea Graben", "ERA": "Mesozoic", "SYSTEM": "Cretaceous", "SERIES": "Upper Cretaceous", "STAGE": null, "REFERENCES": "947" }, "geometry": { "type": "Point", "coordinates": [ 5.007, 55.531 ] } },
{ "type": "Feature", "properties": { "FLD_NAME": "Slaughter", "COUNTRY": "United States", "EUR_MMBOE": 1671.667, "PRV_USGS_N": "Permian Basin", "ERA": "Paleozoic", "SYSTEM": "Permian", "SERIES": "Cisuralian", "STAGE": null, "REFERENCES": "1, 2, 38, 395" }, "geometry": { "type": "Point", "coordinates": [ -102.572, 33.281 ] } },
{ "type": "Feature", "properties": { "FLD_NAME": "Yuzhno Khilchuyu", "COUNTRY": "Russia", "EUR_MMBOE": 500.0, "PRV_USGS_N": "Timan-Pechora Basin", "ERA": "Paleozoic", "SYSTEM": "Permian", "SERIES": "Cisuralian", "STAGE": null, "REFERENCES": "3, 106, 639" }, "geometry": { "type": "Point", "coordinates": [ 55.366, 68.169 ] } },
{ "type": "Feature", "properties": { "FLD_NAME": "Kashagan", "COUNTRY": "Kazakhstan", "EUR_MMBOE": 13333.333, "PRV_USGS_N": "North Caspian Basin", "ERA": "Paleozoic", "SYSTEM": "Carboniferous", "SERIES": "Mississippian", "STAGE": null, "REFERENCES": "4, 109, 110, 111,157, 1054" }, "geometry": { "type": "Point", "coordinates": [ 52.251, 46.432 ] } },
{ "type": "Feature", "properties": { "FLD_NAME": "Dehluran", "COUNTRY": "Iran", "EUR_MMBOE": 500.0, "PRV_USGS_N": "Zagros Fold Belt", "ERA": "Cenozoic", "SYSTEM": "Neogene", "SERIES": "Miocene", "STAGE": null, "REFERENCES": "38, 67, 68" }, "geometry": { "type": "Point", "coordinates": [ 46.95, 32.617 ] } },
{ "type": "Feature", "properties": { "FLD_NAME": "Khesht", "COUNTRY": "Iran", "EUR_MMBOE": 780.0, "PRV_USGS_N": "Zagros Fold Belt", "ERA": "Cenozoic", "SYSTEM": "Neogene", "SERIES": "Miocene", "STAGE": null, "REFERENCES": "3, 4, 655, 875, 1094" }, "geometry": { "type": "Point", "coordinates": [ 51.28, 29.27 ] } },
{ "type": "Feature", "properties": { "FLD_NAME": "Dahra East-Hofra", "COUNTRY": "Libya", "EUR_MMBOE": 621.0, "PRV_USGS_N": "Sirte Basin", "ERA": "Cenozoic", "SYSTEM": "Paleogene", "SERIES": "Oligocene", "STAGE": null, "REFERENCES": "1, 2, 3, 38, 476, 484" }, "geometry": { "type": "Point", "coordinates": [ 18.009, 29.373 ] } },
{ "type": "Feature", "properties": { "FLD_NAME": "Zeloi", "COUNTRY": "Iran", "EUR_MMBOE": 500.0, "PRV_USGS_N": "Zagros Fold Belt", "ERA": "Cenozoic", "SYSTEM": "Paleogene", "SERIES": "Oligocene", "STAGE": null, "REFERENCES": "38, 66" }, "geometry": { "type": "Point", "coordinates": [ 48.967, 32.2 ] } },
{ "type": "Feature", "properties": { "FLD_NAME": "Subba", "COUNTRY": "Iraq", "EUR_MMBOE": 2383.333, "PRV_USGS_N": "Mesopotamian Foredeep Basin", "ERA": "Mesozoic", "SYSTEM": "Cretaceous", "SERIES": "Upper Cretaceous", "STAGE": null, "REFERENCES": "38, 76, 949" }, "geometry": { "type": "Point", "coordinates": [ 46.683, 30.8 ] } },
{ "type": "Feature", "properties": { "FLD_NAME": "Al Dabb'iya", "COUNTRY": "UAE", "EUR_MMBOE": 1700.0, "PRV_USGS_N": "Rub Al Khali Basin", "ERA": "Mesozoic", "SYSTEM": "Cretaceous", "SERIES": null, "STAGE": null, "REFERENCES": "3, 38, 626, 1145" }, "geometry": { "type": "Point", "coordinates": [ 54.016, 24.242 ] } },
{ "type": "Feature", "properties": { "FLD_NAME": "Mubarraz", "COUNTRY": "UAE", "EUR_MMBOE": 2000.0, "PRV_USGS_N": "Rub Al Khali Basin", "ERA": "Mesozoic", "SYSTEM": "Cretaceous", "SERIES": null, "STAGE": null, "REFERENCES": "2" }, "geometry": { "type": "Point", "coordinates": [ 53.7, 24.45 ] } },
{ "type": "Feature", "properties": { "FLD_NAME": "Binak", "COUNTRY": "Iran", "EUR_MMBOE": 1012.0, "PRV_USGS_N": "Zagros Fold Belt", "ERA": "Mesozoic", "SYSTEM": "Cretaceous", "SERIES": null, "STAGE": null, "REFERENCES": "1, 38, 545, 1094" }, "geometry": { "type": "Point", "coordinates": [ 50.222, 30.002 ] } },
{ "type": "Feature", "properties": { "FLD_NAME": "Rio Nuevo", "COUNTRY": "Mexico", "EUR_MMBOE": 500.0, "PRV_USGS_N": "Villahermosa Uplift", "ERA": "Mesozoic", "SYSTEM": "Cretaceous", "SERIES": null, "STAGE": null, "REFERENCES": "2, 436" }, "geometry": { "type": "Point", "coordinates": [ -93.362, 17.658 ] } },
{ "type": "Feature", "properties": { "FLD_NAME": "Fateh Southwest", "COUNTRY": "UAE", "EUR_MMBOE": 1142.45, "PRV_USGS_N": "Rub Al Khali Basin", "ERA": "Mesozoic", "SYSTEM": "Cretaceous", "SERIES": null, "STAGE": null, "REFERENCES": "2, 3, 628" }, "geometry": { "type": "Point", "coordinates": [ 54.308, 25.5 ] } },
{ "type": "Feature", "properties": { "FLD_NAME": "Azadegan", "COUNTRY": "Iran", "EUR_MMBOE": 4893.533, "PRV_USGS_N": "Mesopotamian Foredeep Basin", "ERA": "Mesozoic", "SYSTEM": "Cretaceous", "SERIES": null, "STAGE": null, "REFERENCES": "4, 647, 875" }, "geometry": { "type": "Point", "coordinates": [ 47.823, 31.295 ] } },
{ "type": "Feature", "properties": { "FLD_NAME": "Yadavaran", "COUNTRY": "Iran", "EUR_MMBOE": 3166.667, "PRV_USGS_N": "Mesopotamian Foredeep Basin", "ERA": "Mesozoic", "SYSTEM": "Cretaceous", "SERIES": null, "STAGE": null, "REFERENCES": "5, 1055, 1085, 1094" }, "geometry": { "type": "Point", "coordinates": [ 47.992, 31.05 ] } },
{ "type": "Feature", "properties": { "FLD_NAME": "Shaybah", "COUNTRY": "Saudi Arabia", "EUR_MMBOE": 21500.0, "PRV_USGS_N": "Rub Al Khali Basin", "ERA": "Mesozoic", "SYSTEM": "Cretaceous", "SERIES": "Lower Cretaceous", "STAGE": null, "REFERENCES": "1, 2, 38, 546, 547, 901, 935, 1145" }, "geometry": { "type": "Point", "coordinates": [ 54.043, 22.552 ] } },
{ "type": "Feature", "properties": { "FLD_NAME": "Rostam", "COUNTRY": "Iran", "EUR_MMBOE": 1000.0, "PRV_USGS_N": "Rub Al Khali Basin", "ERA": "Mesozoic", "SYSTEM": "Jurassic", "SERIES": "Middle Jurassic", "STAGE": null, "REFERENCES": "1, 545, 628" }, "geometry": { "type": "Point", "coordinates": [ 53.0, 26.0 ] } },
{ "type": "Feature", "properties": { "FLD_NAME": "Dmitriyevskoye", "COUNTRY": "Russia", "EUR_MMBOE": 500.0, "PRV_USGS_N": "Volga-Ural Region", "ERA": "Paleozoic", "SYSTEM": "Devonian", "SERIES": "Middle Devonian", "STAGE": null, "REFERENCES": "38" }, "geometry": { "type": "Point", "coordinates": [ 51.333, 53.25 ] } },
{ "type": "Feature", "properties": { "FLD_NAME": "Valhall", "COUNTRY": "Norway", "EUR_MMBOE": 1013.562, "PRV_USGS_N": "North Sea Graben", "ERA": "Mesozoic", "SYSTEM": "Cretaceous", "SERIES": "Upper Cretaceous", "STAGE": null, "REFERENCES": "3, 38, 87, 90, 513, 882" }, "geometry": { "type": "Point", "coordinates": [ 3.45, 56.25 ] } },
{ "type": "Feature", "properties": { "FLD_NAME": "Al Shaheen", "COUNTRY": "Qatar", "EUR_MMBOE": 1323.0, "PRV_USGS_N": "Qatar Arch", "ERA": "Mesozoic", "SYSTEM": "Cretaceous", "SERIES": "Lower Cretaceous", "STAGE": null, "REFERENCES": "733, 1145, 1148, 1149, 1150" }, "geometry": { "type": "Point", "coordinates": [ 52.0, 26.6 ] } },
{ "type": "Feature", "properties": { "FLD_NAME": "West Ekofisk", "COUNTRY": "Norway", "EUR_MMBOE": 754.5, "PRV_USGS_N": "North Sea Graben", "ERA": "Cenozoic", "SYSTEM": "Paleogene", "SERIES": "Paleocene", "STAGE": null, "REFERENCES": "2, 88" }, "geometry": { "type": "Point", "coordinates": [ 3.083, 56.55 ] } },
{ "type": "Feature", "properties": { "FLD_NAME": "Albuskjell", "COUNTRY": "Norway", "EUR_MMBOE": 570.333, "PRV_USGS_N": "North Sea Graben", "ERA": "Mesozoic", "SYSTEM": "Cretaceous", "SERIES": "Lower Cretaceous", "STAGE": null, "REFERENCES": "2, 511, 512" }, "geometry": { "type": "Point", "coordinates": [ 3.083, 56.667 ] } },
{ "type": "Feature", "properties": { "FLD_NAME": "Isis", "COUNTRY": "Tunisia", "EUR_MMBOE": 1000.0, "PRV_USGS_N": "Pelagian Basin", "ERA": "Mesozoic", "SYSTEM": "Cretaceous", "SERIES": "Upper Cretaceous", "STAGE": null, "REFERENCES": "2, 620" }, "geometry": { "type": "Point", "coordinates": [ 11.5, 32.623 ] } },
{ "type": "Feature", "properties": { "FLD_NAME": "Azar field", "COUNTRY": "Iran", "EUR_MMBOE": 1000.0, "PRV_USGS_N": "Zagros Fold Belt", "ERA": "Mesozoic", "SYSTEM": "Triassic", "SERIES": "Upper Triassic", "STAGE": null, "REFERENCES": "1026, 1027" }, "geometry": { "type": "Point", "coordinates": [ 46.608, 33.03 ] } },
{ "type": "Feature", "properties": { "FLD_NAME": "Pavlovskoye", "COUNTRY": "Russia", "EUR_MMBOE": 500.0, "PRV_USGS_N": "Volga-Ural Region", "ERA": "Paleozoic", "SYSTEM": "Carboniferous", "SERIES": "Mississippian", "STAGE": null, "REFERENCES": "38, 641" }, "geometry": { "type": "Point", "coordinates": [ 56.073, 56.506 ] } },
{ "type": "Feature", "properties": { "FLD_NAME": "Alif", "COUNTRY": "Yemen", "EUR_MMBOE": 900.0, "PRV_USGS_N": "Ma'Rib-Al Jawf Basin", "ERA": "Mesozoic", "SYSTEM": "Cretaceous", "SERIES": "Lower Cretaceous", "STAGE": null, "REFERENCES": "38, 832" }, "geometry": { "type": "Point", "coordinates": [ 45.797, 15.573 ] } },
{ "type": "Feature", "properties": { "FLD_NAME": "Cantarell", "COUNTRY": "Mexico", "EUR_MMBOE": 18375.593, "PRV_USGS_N": "Saline-Comalcalco Basin", "ERA": "Cenozoic", "SYSTEM": "Paleogene", "SERIES": "Paleocene", "STAGE": null, "REFERENCES": "2, 3, 337, 437" }, "geometry": { "type": "Point", "coordinates": [ -92.731, 19.397 ] } },
{ "type": "Feature", "properties": { "FLD_NAME": "Malongo West", "COUNTRY": "Angola", "EUR_MMBOE": 800.0, "PRV_USGS_N": "West-central Coastal", "ERA": "Mesozoic", "SYSTEM": "Cretaceous", "SERIES": null, "STAGE": null, "REFERENCES": "2, 152, 155, 853" }, "geometry": { "type": "Point", "coordinates": [ 12.05, -5.417 ] } },
{ "type": "Feature", "properties": { "FLD_NAME": "Seminole", "COUNTRY": "United States", "EUR_MMBOE": 822.0, "PRV_USGS_N": "Cherokee Platform", "ERA": "Paleozoic", "SYSTEM": "Silurian", "SERIES": "Pridoli", "STAGE": null, "REFERENCES": "1, 34" }, "geometry": { "type": "Point", "coordinates": [ -96.6, 35.21 ] } },
{ "type": "Feature", "properties": { "FLD_NAME": "N'Kossa Marine", "COUNTRY": "Congo (Brazzaville)", "EUR_MMBOE": 500.0, "PRV_USGS_N": "West-central Coastal", "ERA": "Mesozoic", "SYSTEM": "Cretaceous", "SERIES": "Lower Cretaceous", "STAGE": null, "REFERENCES": "38, 53" }, "geometry": { "type": "Point", "coordinates": [ 11.517, -5.3 ] } },
{ "type": "Feature", "properties": { "FLD_NAME": "Rafidain", "COUNTRY": "Iraq", "EUR_MMBOE": 690.0, "PRV_USGS_N": "Mesopotamian Foredeep Basin", "ERA": "Mesozoic", "SYSTEM": "Cretaceous", "SERIES": "Lower Cretaceous", "STAGE": null, "REFERENCES": "1145, 1146" }, "geometry": { "type": "Point", "coordinates": [ 46.175, 31.953 ] } },
{ "type": "Feature", "properties": { "FLD_NAME": "Point Arguello", "COUNTRY": "United States", "EUR_MMBOE": 500.0, "PRV_USGS_N": "Central California OCS", "ERA": "Cenozoic", "SYSTEM": "Neogene", "SERIES": "Miocene", "STAGE": null, "REFERENCES": "2, 568" }, "geometry": { "type": "Point", "coordinates": [ -120.667, 34.5 ] } },
{ "type": "Feature", "properties": { "FLD_NAME": "South Sand Belt", "COUNTRY": "United States", "EUR_MMBOE": 900.0, "PRV_USGS_N": "Permian Basin", "ERA": "Paleozoic", "SYSTEM": "Permian", "SERIES": "Cisuralian", "STAGE": null, "REFERENCES": "2, 38, 403" }, "geometry": { "type": "Point", "coordinates": [ -102.898, 31.381 ] } },
{ "type": "Feature", "properties": { "FLD_NAME": "Carioca-Sugar Loaf", "COUNTRY": "Brazil", "EUR_MMBOE": 3000.0, "PRV_USGS_N": "Santos Basin", "ERA": "Mesozoic", "SYSTEM": "Cretaceous", "SERIES": "Lower Cretaceous", "STAGE": null, "REFERENCES": "1138" }, "geometry": { "type": "Point", "coordinates": [ -43.511, -25.555 ] } },
{ "type": "Feature", "properties": { "FLD_NAME": "Guara", "COUNTRY": "Brazil", "EUR_MMBOE": 1500.0, "PRV_USGS_N": "Espirito Santo Basin", "ERA": "Mesozoic", "SYSTEM": "Cretaceous", "SERIES": "Lower Cretaceous", "STAGE": null, "REFERENCES": "1181, 1182, 1183, 1184, 1193" }, "geometry": { "type": "Point", "coordinates": [ -39.9, -18.8 ] } },
{ "type": "Feature", "properties": { "FLD_NAME": "Jupiter", "COUNTRY": "Brazil", "EUR_MMBOE": 3000.0, "PRV_USGS_N": "Santos Basin", "ERA": "Mesozoic", "SYSTEM": "Cretaceous", "SERIES": "Lower Cretaceous", "STAGE": null, "REFERENCES": "1138" }, "geometry": { "type": "Point", "coordinates": [ -42.447, -25.507 ] } },
{ "type": "Feature", "properties": { "FLD_NAME": "Tupi", "COUNTRY": "Brazil", "EUR_MMBOE": 6500.0, "PRV_USGS_N": "Santos Basin", "ERA": "Mesozoic", "SYSTEM": "Cretaceous", "SERIES": "Lower Cretaceous", "STAGE": null, "REFERENCES": "1133, 1134, 1135, 1136, 1137, 1138, 1191" }, "geometry": { "type": "Point", "coordinates": [ -42.795, -25.277 ] } },
{ "type": "Feature", "properties": { "FLD_NAME": "Mad Dog", "COUNTRY": "United States", "EUR_MMBOE": 500.0, "PRV_USGS_N": "Gulf Cenozoic OCS", "ERA": "Cenozoic", "SYSTEM": "Neogene", "SERIES": "Miocene", "STAGE": null, "REFERENCES": "240, 241, 242, 875" }, "geometry": { "type": "Point", "coordinates": [ -90.2, 27.283 ] } },
{ "type": "Feature", "properties": { "FLD_NAME": "Lama", "COUNTRY": "Venezuela", "EUR_MMBOE": 709.57, "PRV_USGS_N": "Maracaibo Basin", "ERA": "Cenozoic", "SYSTEM": "Paleogene", "SERIES": "Paleocene", "STAGE": null, "REFERENCES": "1, 3, 38, 575, 975" }, "geometry": { "type": "Point", "coordinates": [ -71.75, 10.013 ] } },
{ "type": "Feature", "properties": { "FLD_NAME": "Buena Vista Hills", "COUNTRY": "United States", "EUR_MMBOE": 859.41, "PRV_USGS_N": "San Joaquin Basin", "ERA": "Cenozoic", "SYSTEM": "Neogene", "SERIES": "Pliocene", "STAGE": "Piacenzian", "REFERENCES": "1, 2, 6, 38, 432" }, "geometry": { "type": "Point", "coordinates": [ -119.425, 35.2 ] } },
{ "type": "Feature", "properties": { "FLD_NAME": "Kern River", "COUNTRY": "United States", "EUR_MMBOE": 1675.814, "PRV_USGS_N": "San Joaquin Basin", "ERA": "Cenozoic", "SYSTEM": "Neogene", "SERIES": "Pliocene", "STAGE": "Piacenzian", "REFERENCES": "1, 2, 6, 427" }, "geometry": { "type": "Point", "coordinates": [ -119.035, 35.504 ] } },
{ "type": "Feature", "properties": { "FLD_NAME": "Balakhany Sabunchino", "COUNTRY": "Azerbaijan", "EUR_MMBOE": 2400.0, "PRV_USGS_N": "South Caspian Basin", "ERA": "Cenozoic", "SYSTEM": "Neogene", "SERIES": "Pliocene", "STAGE": "Piacenzian", "REFERENCES": "1, 2, 38, 174" }, "geometry": { "type": "Point", "coordinates": [ 50.333, 40.667 ] } },
{ "type": "Feature", "properties": { "FLD_NAME": "Abouzar", "COUNTRY": "Iran", "EUR_MMBOE": 1331.5, "PRV_USGS_N": "Mesopotamian Foredeep Basin", "ERA": "Cenozoic", "SYSTEM": "Neogene", "SERIES": "Miocene", "STAGE": null, "REFERENCES": "2, 179, 1094" }, "geometry": { "type": "Point", "coordinates": [ 49.533, 29.3 ] } },
{ "type": "Feature", "properties": { "FLD_NAME": "Coalinga", "COUNTRY": "United States", "EUR_MMBOE": 906.395, "PRV_USGS_N": "San Joaquin Basin", "ERA": "Cenozoic", "SYSTEM": "Neogene", "SERIES": "Miocene", "STAGE": null, "REFERENCES": "1, 2, 6, 38, 425" }, "geometry": { "type": "Point", "coordinates": [ -120.5, 36.167 ] } },
{ "type": "Feature", "properties": { "FLD_NAME": "Midway-Sunset", "COUNTRY": "United States", "EUR_MMBOE": 2780.333, "PRV_USGS_N": "San Joaquin Basin", "ERA": "Cenozoic", "SYSTEM": "Neogene", "SERIES": "Miocene", "STAGE": null, "REFERENCES": "1, 2, 6, 431, 1109" }, "geometry": { "type": "Point", "coordinates": [ -119.5, 35.167 ] } },
{ "type": "Feature", "properties": { "FLD_NAME": "San Ardo", "COUNTRY": "United States", "EUR_MMBOE": 529.0, "PRV_USGS_N": "Central Coastal", "ERA": "Cenozoic", "SYSTEM": "Neogene", "SERIES": "Miocene", "STAGE": null, "REFERENCES": "2, 38, 438, 439, 962" }, "geometry": { "type": "Point", "coordinates": [ -120.874, 35.96 ] } },
{ "type": "Feature", "properties": { "FLD_NAME": "South Belridge", "COUNTRY": "United States", "EUR_MMBOE": 1380.884, "PRV_USGS_N": "San Joaquin Basin", "ERA": "Cenozoic", "SYSTEM": "Neogene", "SERIES": "Miocene", "STAGE": null, "REFERENCES": "2, 6, 38, 428" }, "geometry": { "type": "Point", "coordinates": [ -119.5, 35.505 ] } },
{ "type": "Feature", "properties": { "FLD_NAME": "McArthur River", "COUNTRY": "United States", "EUR_MMBOE": 670.0, "PRV_USGS_N": "Southern Alaska", "ERA": "Cenozoic", "SYSTEM": "Neogene", "SERIES": "Miocene", "STAGE": null, "REFERENCES": "2, 343" }, "geometry": { "type": "Point", "coordinates": [ -151.662, 60.849 ] } },
{ "type": "Feature", "properties": { "FLD_NAME": "Ratga", "COUNTRY": "Kuwait", "EUR_MMBOE": 1018.0, "PRV_USGS_N": "Mesopotamian Foredeep Basin", "ERA": "Cenozoic", "SYSTEM": "Neogene", "SERIES": "Miocene", "STAGE": null, "REFERENCES": "2, 1145" }, "geometry": { "type": "Point", "coordinates": [ 47.447, 30.095 ] } },
{ "type": "Feature", "properties": { "FLD_NAME": "Attaka", "COUNTRY": "Indonesia", "EUR_MMBOE": 1000.0, "PRV_USGS_N": "Kutei Basin", "ERA": "Cenozoic", "SYSTEM": "Neogene", "SERIES": "Miocene", "STAGE": null, "REFERENCES": "2, 301, 302, 303, 1031" }, "geometry": { "type": "Point", "coordinates": [ 117.633, 0.167 ] } },
{ "type": "Feature", "properties": { "FLD_NAME": "Belayim Land", "COUNTRY": "Egypt", "EUR_MMBOE": 500.0, "PRV_USGS_N": "Red Sea Basin", "ERA": "Cenozoic", "SYSTEM": "Neogene", "SERIES": "Miocene", "STAGE": null, "REFERENCES": "2, 38, 269, 271, 272, 893" }, "geometry": { "type": "Point", "coordinates": [ 33.222, 28.617 ] } },
{ "type": "Feature", "properties": { "FLD_NAME": "Laochunmiao", "COUNTRY": "China", "EUR_MMBOE": 500.0, "PRV_USGS_N": "Jiuquan Minle Wuwei Basin", "ERA": "Cenozoic", "SYSTEM": "Neogene", "SERIES": "Miocene", "STAGE": null, "REFERENCES": "1, 2" }, "geometry": { "type": "Point", "coordinates": [ 97.462, 39.846 ] } },
{ "type": "Feature", "properties": { "FLD_NAME": "Leng-hu", "COUNTRY": "China", "EUR_MMBOE": 1100.0, "PRV_USGS_N": "Qaidam Basin", "ERA": "Cenozoic", "SYSTEM": "Neogene", "SERIES": "Miocene", "STAGE": null, "REFERENCES": "1, 2, 235" }, "geometry": { "type": "Point", "coordinates": [ 93.339, 38.739 ] } },
{ "type": "Feature", "properties": { "FLD_NAME": "Seligi", "COUNTRY": "Malaysia", "EUR_MMBOE": 500.0, "PRV_USGS_N": "Malay Basin", "ERA": "Cenozoic", "SYSTEM": "Paleogene", "SERIES": "Oligocene", "STAGE": null, "REFERENCES": "3, 38, 80, 81" }, "geometry": { "type": "Point", "coordinates": [ 105.317, 5.45 ] } },
{ "type": "Feature", "properties": { "FLD_NAME": "Gudong", "COUNTRY": "China", "EUR_MMBOE": 514.3, "PRV_USGS_N": "Bohaiwan Basin", "ERA": "Cenozoic", "SYSTEM": "Paleogene", "SERIES": "Oligocene", "STAGE": null, "REFERENCES": "3, 38, 226, 227" }, "geometry": { "type": "Point", "coordinates": [ 119.045, 37.88 ] } },
{ "type": "Feature", "properties": { "FLD_NAME": "Furrial-Musipan", "COUNTRY": "Venezuela", "EUR_MMBOE": 3542.275, "PRV_USGS_N": "East Venezuela Basin", "ERA": "Cenozoic", "SYSTEM": "Paleogene", "SERIES": "Oligocene", "STAGE": null, "REFERENCES": "3, 38, 385, 585, 976, 977" }, "geometry": { "type": "Point", "coordinates": [ -63.667, 9.4 ] } },
{ "type": "Feature", "properties": { "FLD_NAME": "Nahorkatiya", "COUNTRY": "India", "EUR_MMBOE": 500.0, "PRV_USGS_N": "Assam", "ERA": "Cenozoic", "SYSTEM": "Paleogene", "SERIES": "Oligocene", "STAGE": null, "REFERENCES": "2, 295, 923" }, "geometry": { "type": "Point", "coordinates": [ 95.333, 27.283 ] } },
{ "type": "Feature", "properties": { "FLD_NAME": "Jianghan", "COUNTRY": "China", "EUR_MMBOE": 500.0, "PRV_USGS_N": "Jianghan Basin", "ERA": "Cenozoic", "SYSTEM": "Paleogene", "SERIES": "Oligocene", "STAGE": null, "REFERENCES": "2" }, "geometry": { "type": "Point", "coordinates": [ 112.507, 30.564 ] } },
{ "type": "Feature", "properties": { "FLD_NAME": "West Ranch", "COUNTRY": "United States", "EUR_MMBOE": 544.667, "PRV_USGS_N": "Western Gulf", "ERA": "Cenozoic", "SYSTEM": "Paleogene", "SERIES": "Oligocene", "STAGE": null, "REFERENCES": "2, 38, 364" }, "geometry": { "type": "Point", "coordinates": [ -96.5, 29.0 ] } },
{ "type": "Feature", "properties": { "FLD_NAME": "Carito", "COUNTRY": "Venezuela", "EUR_MMBOE": 5808.31, "PRV_USGS_N": "East Venezuela Basin", "ERA": "Cenozoic", "SYSTEM": "Paleogene", "SERIES": "Oligocene", "STAGE": null, "REFERENCES": "3, 583, 976" }, "geometry": { "type": "Point", "coordinates": [ -63.731, 9.425 ] } },
{ "type": "Feature", "properties": { "FLD_NAME": "Ankleshwar", "COUNTRY": "India", "EUR_MMBOE": 520.0, "PRV_USGS_N": "Bombay", "ERA": "Cenozoic", "SYSTEM": "Paleogene", "SERIES": "Eocene", "STAGE": null, "REFERENCES": "2, 288, 289, 929" }, "geometry": { "type": "Point", "coordinates": [ 72.985, 21.628 ] } },
{ "type": "Feature", "properties": { "FLD_NAME": "Cupiagua", "COUNTRY": "Colombia", "EUR_MMBOE": 727.957, "PRV_USGS_N": "Llanos Basin", "ERA": "Cenozoic", "SYSTEM": "Paleogene", "SERIES": "Eocene", "STAGE": null, "REFERENCES": "3, 4, 38, 259, 875" }, "geometry": { "type": "Point", "coordinates": [ -72.774, 5.127 ] } },
{ "type": "Feature", "properties": { "FLD_NAME": "Lago", "COUNTRY": "Venezuela", "EUR_MMBOE": 631.6, "PRV_USGS_N": "Maracaibo Basin", "ERA": "Cenozoic", "SYSTEM": "Paleogene", "SERIES": "Paleocene", "STAGE": null, "REFERENCES": "3, 38, 577" }, "geometry": { "type": "Point", "coordinates": [ -71.717, 9.55 ] } },
{ "type": "Feature", "properties": { "FLD_NAME": "La Cira-Infantas", "COUNTRY": "Colombia", "EUR_MMBOE": 500.0, "PRV_USGS_N": "Middle Magdelena", "ERA": "Cenozoic", "SYSTEM": "Paleogene", "SERIES": "Paleocene", "STAGE": null, "REFERENCES": "1,  2, 38, 263" }, "geometry": { "type": "Point", "coordinates": [ -73.762, 6.936 ] } },
{ "type": "Feature", "properties": { "FLD_NAME": "Halibut", "COUNTRY": "Australia", "EUR_MMBOE": 700.0, "PRV_USGS_N": "Gippsland Basin", "ERA": "Cenozoic", "SYSTEM": "Paleogene", "SERIES": "Paleocene", "STAGE": null, "REFERENCES": "1, 2, 38, , 160, 163" }, "geometry": { "type": "Point", "coordinates": [ 148.317, -38.4 ] } },
{ "type": "Feature", "properties": { "FLD_NAME": "Sabiriyah", "COUNTRY": "Kuwait", "EUR_MMBOE": 5509.682, "PRV_USGS_N": "Mesopotamian Foredeep Basin", "ERA": "Mesozoic", "SYSTEM": "Cretaceous", "SERIES": null, "STAGE": null, "REFERENCES": "1, 2, 3, 710, 1154" }, "geometry": { "type": "Point", "coordinates": [ 47.832, 29.831 ] } },
{ "type": "Feature", "properties": { "FLD_NAME": "Shushufindi-Aguarico", "COUNTRY": "Ecuador", "EUR_MMBOE": 643.582, "PRV_USGS_N": "Putumayo-Oriente-Maranon Basin", "ERA": "Mesozoic", "SYSTEM": "Cretaceous", "SERIES": null, "STAGE": null, "REFERENCES": "2, 3, 38, 268" }, "geometry": { "type": "Point", "coordinates": [ -76.646, -0.187 ] } },
{ "type": "Feature", "properties": { "FLD_NAME": "Foroozan", "COUNTRY": "Iran", "EUR_MMBOE": 1067.6, "PRV_USGS_N": "Mesopotamian Foredeep Basin", "ERA": "Mesozoic", "SYSTEM": "Cretaceous", "SERIES": null, "STAGE": null, "REFERENCES": "3, 651, 1094" }, "geometry": { "type": "Point", "coordinates": [ 49.742, 28.528 ] } },
{ "type": "Feature", "properties": { "FLD_NAME": "Bolshoye Chernogor", "COUNTRY": "Russia", "EUR_MMBOE": 800.0, "PRV_USGS_N": "West Siberian Basin", "ERA": "Mesozoic", "SYSTEM": "Cretaceous", "SERIES": null, "STAGE": null, "REFERENCES": "2, 742, 914" }, "geometry": { "type": "Point", "coordinates": [ 77.0, 71.667 ] } },
{ "type": "Feature", "properties": { "FLD_NAME": "Komsomol'sk Severnyy", "COUNTRY": "Russia", "EUR_MMBOE": 1770.0, "PRV_USGS_N": "West Siberian Basin", "ERA": "Mesozoic", "SYSTEM": "Cretaceous", "SERIES": null, "STAGE": null, "REFERENCES": "2, 3, 38, 119, 914" }, "geometry": { "type": "Point", "coordinates": [ 75.416, 64.696 ] } },
{ "type": "Feature", "properties": { "FLD_NAME": "Ozeksuatskoye", "COUNTRY": "Russia", "EUR_MMBOE": 500.0, "PRV_USGS_N": "Middle Caspian Basin", "ERA": "Mesozoic", "SYSTEM": "Cretaceous", "SERIES": null, "STAGE": null, "REFERENCES": "2, 38" }, "geometry": { "type": "Point", "coordinates": [ 45.333, 44.533 ] } },
{ "type": "Feature", "properties": { "FLD_NAME": "Russkoye", "COUNTRY": "Russia", "EUR_MMBOE": 3260.0, "PRV_USGS_N": "West Siberian Basin", "ERA": "Mesozoic", "SYSTEM": "Cretaceous", "SERIES": null, "STAGE": null, "REFERENCES": "1, 2, 3, 38, 74, 759, 914" }, "geometry": { "type": "Point", "coordinates": [ 80.444, 66.75 ] } },
{ "type": "Feature", "properties": { "FLD_NAME": "Ust'-Bakykskoye", "COUNTRY": "Russia", "EUR_MMBOE": 2300.0, "PRV_USGS_N": "West Siberian Basin", "ERA": "Mesozoic", "SYSTEM": "Cretaceous", "SERIES": null, "STAGE": null, "REFERENCES": "1, 2, 914" }, "geometry": { "type": "Point", "coordinates": [ 72.856, 62.367 ] } },
{ "type": "Feature", "properties": { "FLD_NAME": "Sarir L (L-65)", "COUNTRY": "Libya", "EUR_MMBOE": 1200.0, "PRV_USGS_N": "Sirte Basin", "ERA": "Mesozoic", "SYSTEM": "Cretaceous", "SERIES": null, "STAGE": null, "REFERENCES": "1, 2, 38, 479" }, "geometry": { "type": "Point", "coordinates": [ 22.486, 27.646 ] } },
{ "type": "Feature", "properties": { "FLD_NAME": "Bahrah", "COUNTRY": "Kuwait", "EUR_MMBOE": 1400.0, "PRV_USGS_N": "Mesopotamian Foredeep Basin", "ERA": "Mesozoic", "SYSTEM": "Cretaceous", "SERIES": null, "STAGE": null, "REFERENCES": "2, 704" }, "geometry": { "type": "Point", "coordinates": [ 47.917, 29.567 ] } },
{ "type": "Feature", "properties": { "FLD_NAME": "Baghdad, East", "COUNTRY": "Iraq", "EUR_MMBOE": 16416.667, "PRV_USGS_N": "Mesopotamian Foredeep Basin", "ERA": "Mesozoic", "SYSTEM": "Cretaceous", "SERIES": null, "STAGE": null, "REFERENCES": "2, 672, 673, 883, 949" }, "geometry": { "type": "Point", "coordinates": [ 44.5, 33.133 ] } },
{ "type": "Feature", "properties": { "FLD_NAME": "Luhais", "COUNTRY": "Iraq", "EUR_MMBOE": 1143.333, "PRV_USGS_N": "Mesopotamian Foredeep Basin", "ERA": "Mesozoic", "SYSTEM": "Cretaceous", "SERIES": null, "STAGE": null, "REFERENCES": "2, 668, 669, 673, 683, 883, 949" }, "geometry": { "type": "Point", "coordinates": [ 46.836, 30.352 ] } },
{ "type": "Feature", "properties": { "FLD_NAME": "Nahr Umr", "COUNTRY": "Iraq", "EUR_MMBOE": 8150.0, "PRV_USGS_N": "Mesopotamian Foredeep Basin", "ERA": "Mesozoic", "SYSTEM": "Cretaceous", "SERIES": null, "STAGE": null, "REFERENCES": "2, 668, 949" }, "geometry": { "type": "Point", "coordinates": [ 47.7, 30.767 ] } },
{ "type": "Feature", "properties": { "FLD_NAME": "Rumaila North and South", "COUNTRY": "Iraq", "EUR_MMBOE": 33333.333, "PRV_USGS_N": "Mesopotamian Foredeep Basin", "ERA": "Mesozoic", "SYSTEM": "Cretaceous", "SERIES": null, "STAGE": null, "REFERENCES": "1, 2, 668, 883, 949" }, "geometry": { "type": "Point", "coordinates": [ 47.339, 30.359 ] } },
{ "type": "Feature", "properties": { "FLD_NAME": "Sacha", "COUNTRY": "Ecuador", "EUR_MMBOE": 650.0, "PRV_USGS_N": "Putumayo-Oriente-Maranon Basin", "ERA": "Mesozoic", "SYSTEM": "Cretaceous", "SERIES": null, "STAGE": null, "REFERENCES": "2, 38, 268" }, "geometry": { "type": "Point", "coordinates": [ -76.877, 0.079 ] } },
{ "type": "Feature", "properties": { "FLD_NAME": "Taking [Taching]", "COUNTRY": "China", "EUR_MMBOE": 4822.732, "PRV_USGS_N": "Songliao Basin", "ERA": "Mesozoic", "SYSTEM": "Cretaceous", "SERIES": null, "STAGE": null, "REFERENCES": "1, 2, 236, 684" }, "geometry": { "type": "Point", "coordinates": [ 125.3, 46.617 ] } },
{ "type": "Feature", "properties": { "FLD_NAME": "Xingshugang", "COUNTRY": "China", "EUR_MMBOE": 4257.508, "PRV_USGS_N": "Songliao Basin", "ERA": "Mesozoic", "SYSTEM": "Cretaceous", "SERIES": null, "STAGE": null, "REFERENCES": "3, 229, 684" }, "geometry": { "type": "Point", "coordinates": [ 124.826, 46.312 ] } },
{ "type": "Feature", "properties": { "FLD_NAME": "Malongo North and South", "COUNTRY": "Angola", "EUR_MMBOE": 850.0, "PRV_USGS_N": "West-central Coastal", "ERA": "Mesozoic", "SYSTEM": "Cretaceous", "SERIES": null, "STAGE": null, "REFERENCES": "1, 2, 152, 155" }, "geometry": { "type": "Point", "coordinates": [ 12.083, -5.35 ] } },
{ "type": "Feature", "properties": { "FLD_NAME": "Megion", "COUNTRY": "Russia", "EUR_MMBOE": 885.0, "PRV_USGS_N": "West Siberian Basin", "ERA": "Mesozoic", "SYSTEM": "Cretaceous", "SERIES": "Lower Cretaceous", "STAGE": null, "REFERENCES": "1, 2, 3, 754, 914" }, "geometry": { "type": "Point", "coordinates": [ 76.27, 60.779 ] } },
{ "type": "Feature", "properties": { "FLD_NAME": "Marjan", "COUNTRY": "Saudi Arabia", "EUR_MMBOE": 10327.0, "PRV_USGS_N": "Mesopotamian Foredeep Basin", "ERA": "Mesozoic", "SYSTEM": "Cretaceous", "SERIES": "Lower Cretaceous", "STAGE": null, "REFERENCES": "1, 2, 812, 784, 1145" }, "geometry": { "type": "Point", "coordinates": [ 49.683, 28.417 ] } },
{ "type": "Feature", "properties": { "FLD_NAME": "Qubqub", "COUNTRY": "Saudi Arabia", "EUR_MMBOE": 850.0, "PRV_USGS_N": "Mesopotamian Foredeep Basin", "ERA": "Mesozoic", "SYSTEM": "Cretaceous", "SERIES": "Lower Cretaceous", "STAGE": null, "REFERENCES": "3, 66" }, "geometry": { "type": "Point", "coordinates": [ 49.064, 28.096 ] } },
{ "type": "Feature", "properties": { "FLD_NAME": "Safaniya", "COUNTRY": "Saudi Arabia", "EUR_MMBOE": 56284.5, "PRV_USGS_N": "Mesopotamian Foredeep Basin", "ERA": "Mesozoic", "SYSTEM": "Cretaceous", "SERIES": "Lower Cretaceous", "STAGE": null, "REFERENCES": "1, 2, 3, 818, 1145" }, "geometry": { "type": "Point", "coordinates": [ 48.757, 28.029 ] } },
{ "type": "Feature", "properties": { "FLD_NAME": "Zuluf", "COUNTRY": "Saudi Arabia", "EUR_MMBOE": 21009.5, "PRV_USGS_N": "Mesopotamian Foredeep Basin", "ERA": "Mesozoic", "SYSTEM": "Cretaceous", "SERIES": "Lower Cretaceous", "STAGE": null, "REFERENCES": "2, 3, 38, 820, 1145" }, "geometry": { "type": "Point", "coordinates": [ 49.167, 28.367 ] } },
{ "type": "Feature", "properties": { "FLD_NAME": "Noor", "COUNTRY": "Iraq", "EUR_MMBOE": 500.0, "PRV_USGS_N": "Mesopotamian Foredeep Basin", "ERA": "Mesozoic", "SYSTEM": "Cretaceous", "SERIES": "Lower Cretaceous", "STAGE": null, "REFERENCES": "3, 38, 75, 883" }, "geometry": { "type": "Point", "coordinates": [ 47.314, 31.922 ] } },
{ "type": "Feature", "properties": { "FLD_NAME": "Nowruz", "COUNTRY": "Iran", "EUR_MMBOE": 1240.253, "PRV_USGS_N": "Mesopotamian Foredeep Basin", "ERA": "Mesozoic", "SYSTEM": "Cretaceous", "SERIES": "Lower Cretaceous", "STAGE": null, "REFERENCES": "3, 660,1094" }, "geometry": { "type": "Point", "coordinates": [ 49.387, 29.463 ] } },
{ "type": "Feature", "properties": { "FLD_NAME": "Soroosh", "COUNTRY": "Iran", "EUR_MMBOE": 1785.497, "PRV_USGS_N": "Mesopotamian Foredeep Basin", "ERA": "Mesozoic", "SYSTEM": "Cretaceous", "SERIES": "Lower Cretaceous", "STAGE": null, "REFERENCES": "3, 645, 666, 1094" }, "geometry": { "type": "Point", "coordinates": [ 49.499, 29.052 ] } },
{ "type": "Feature", "properties": { "FLD_NAME": "Rachi", "COUNTRY": "Iraq", "EUR_MMBOE": 870.0, "PRV_USGS_N": "Mesopotamian Foredeep Basin", "ERA": "Mesozoic", "SYSTEM": "Cretaceous", "SERIES": "Lower Cretaceous", "STAGE": null, "REFERENCES": "3, 75" }, "geometry": { "type": "Point", "coordinates": [ 47.039, 30.236 ] } },
{ "type": "Feature", "properties": { "FLD_NAME": "Safwan", "COUNTRY": "Iraq", "EUR_MMBOE": 558.333, "PRV_USGS_N": "Mesopotamian Foredeep Basin", "ERA": "Mesozoic", "SYSTEM": "Cretaceous", "SERIES": "Lower Cretaceous", "STAGE": null, "REFERENCES": "3, 691" }, "geometry": { "type": "Point", "coordinates": [ 47.753, 30.106 ] } },
{ "type": "Feature", "properties": { "FLD_NAME": "Zubair", "COUNTRY": "Iraq", "EUR_MMBOE": 9186.667, "PRV_USGS_N": "Mesopotamian Foredeep Basin", "ERA": "Mesozoic", "SYSTEM": "Cretaceous", "SERIES": "Lower Cretaceous", "STAGE": null, "REFERENCES": "1, 2, 3, 38, 668, 883, 949" }, "geometry": { "type": "Point", "coordinates": [ 47.63, 30.361 ] } },
{ "type": "Feature", "properties": { "FLD_NAME": "Draugen", "COUNTRY": "Norway", "EUR_MMBOE": 2027.527, "PRV_USGS_N": "Vestford-Helgeland", "ERA": "Mesozoic", "SYSTEM": "Jurassic", "SERIES": "Upper Jurassic", "STAGE": null, "REFERENCES": "3, 93, 513" }, "geometry": { "type": "Point", "coordinates": [ 7.8, 65.383 ] } },
{ "type": "Feature", "properties": { "FLD_NAME": "Tyan", "COUNTRY": "Russia", "EUR_MMBOE": 1785.333, "PRV_USGS_N": "West Siberian Basin", "ERA": "Mesozoic", "SYSTEM": "Jurassic", "SERIES": "Upper Jurassic", "STAGE": null, "REFERENCES": "3, 38, 771, 914" }, "geometry": { "type": "Point", "coordinates": [ 72.375, 62.808 ] } },
{ "type": "Feature", "properties": { "FLD_NAME": "Verkhne-Kolik'yegan", "COUNTRY": "Russia", "EUR_MMBOE": 1712.148, "PRV_USGS_N": "West Siberian Basin", "ERA": "Mesozoic", "SYSTEM": "Jurassic", "SERIES": "Upper Jurassic", "STAGE": null, "REFERENCES": "3, 38, 746, 914" }, "geometry": { "type": "Point", "coordinates": [ 80.158, 62.377 ] } },
{ "type": "Feature", "properties": { "FLD_NAME": "Issungnak", "COUNTRY": "Canada", "EUR_MMBOE": 500.0, "PRV_USGS_N": "Mackenzie Delta", "ERA": "Mesozoic", "SYSTEM": "Jurassic", "SERIES": "Lower Jurassic", "STAGE": null, "REFERENCES": "2, 216, 215, 952" }, "geometry": { "type": "Point", "coordinates": [ -134.317, 70.017 ] } },
{ "type": "Feature", "properties": { "FLD_NAME": "Lung-nu-ssu", "COUNTRY": "China", "EUR_MMBOE": 606.0, "PRV_USGS_N": "Sichuan Basin", "ERA": "Mesozoic", "SYSTEM": "Jurassic", "SERIES": "Lower Jurassic", "STAGE": null, "REFERENCES": "1, 2, 236" }, "geometry": { "type": "Point", "coordinates": [ 106.183, 30.5 ] } },
{ "type": "Feature", "properties": { "FLD_NAME": "El Biar", "COUNTRY": "Algeria", "EUR_MMBOE": 566.667, "PRV_USGS_N": "Trias\/Ghadames Basin", "ERA": "Mesozoic", "SYSTEM": "Triassic", "SERIES": "Upper Triassic", "STAGE": null, "REFERENCES": "3, 38, 141" }, "geometry": { "type": "Point", "coordinates": [ 8.21, 31.058 ] } },
{ "type": "Feature", "properties": { "FLD_NAME": "Ourhoud", "COUNTRY": "Algeria", "EUR_MMBOE": 2113.333, "PRV_USGS_N": "Trias\/Ghadames Basin", "ERA": "Mesozoic", "SYSTEM": "Triassic", "SERIES": "Upper Triassic", "STAGE": null, "REFERENCES": "3, 4, 38, 145, 875" }, "geometry": { "type": "Point", "coordinates": [ 8.09, 30.666 ] } },
{ "type": "Feature", "properties": { "FLD_NAME": "Kuleshovka", "COUNTRY": "Russia", "EUR_MMBOE": 759.0, "PRV_USGS_N": "Volga-Ural Region", "ERA": "Paleozoic", "SYSTEM": "Carboniferous", "SERIES": "Mississippian", "STAGE": null, "REFERENCES": "1, 2, 126" }, "geometry": { "type": "Point", "coordinates": [ 50.5, 52.667 ] } },
{ "type": "Feature", "properties": { "FLD_NAME": "Mukhanovo", "COUNTRY": "Russia", "EUR_MMBOE": 1530.0, "PRV_USGS_N": "Volga-Ural Region", "ERA": "Paleozoic", "SYSTEM": "Carboniferous", "SERIES": "Mississippian", "STAGE": null, "REFERENCES": "1, 2, 3, 38, 127" }, "geometry": { "type": "Point", "coordinates": [ 50.529, 52.997 ] } },
{ "type": "Feature", "properties": { "FLD_NAME": "Yarino-Kamemmyy Log", "COUNTRY": "Russia", "EUR_MMBOE": 510.0, "PRV_USGS_N": "Volga-Ural Region", "ERA": "Paleozoic", "SYSTEM": "Carboniferous", "SERIES": "Mississippian", "STAGE": null, "REFERENCES": "1, 2, 38, 127" }, "geometry": { "type": "Point", "coordinates": [ 56.486, 58.062 ] } },
{ "type": "Feature", "properties": { "FLD_NAME": "Elk Basin", "COUNTRY": "United States", "EUR_MMBOE": 500.0, "PRV_USGS_N": "Big Horn Basin", "ERA": "Paleozoic", "SYSTEM": "Carboniferous", "SERIES": "Mississippian", "STAGE": null, "REFERENCES": "2, 6, 38, 332, 333" }, "geometry": { "type": "Point", "coordinates": [ -108.852, 44.975 ] } },
{ "type": "Feature", "properties": { "FLD_NAME": "Cushing", "COUNTRY": "United States", "EUR_MMBOE": 500.0, "PRV_USGS_N": "Cherokee Platform", "ERA": "Paleozoic", "SYSTEM": "Carboniferous", "SERIES": "Mississippian", "STAGE": null, "REFERENCES": "2, 38, 328" }, "geometry": { "type": "Point", "coordinates": [ -96.753, 35.948 ] } },
{ "type": "Feature", "properties": { "FLD_NAME": "Rangely", "COUNTRY": "United States", "EUR_MMBOE": 904.0, "PRV_USGS_N": "Uinta-Piceance Basins", "ERA": "Paleozoic", "SYSTEM": "Carboniferous", "SERIES": "Mississippian", "STAGE": null, "REFERENCES": "1, 2, 38, 565, 969" }, "geometry": { "type": "Point", "coordinates": [ -108.806, 40.093 ] } },
{ "type": "Feature", "properties": { "FLD_NAME": "Pryluky", "COUNTRY": "Ukraine", "EUR_MMBOE": 588.47, "PRV_USGS_N": "Dnieper-Donets Basin", "ERA": "Paleozoic", "SYSTEM": "Carboniferous", "SERIES": "Mississippian", "STAGE": null, "REFERENCES": "1, 2, 3, 38" }, "geometry": { "type": "Point", "coordinates": [ 32.301, 50.584 ] } },
{ "type": "Feature", "properties": { "FLD_NAME": "Bradford", "COUNTRY": "United States", "EUR_MMBOE": 658.0, "PRV_USGS_N": "Appalachian Basin", "ERA": "Paleozoic", "SYSTEM": "Devonian", "SERIES": "Upper Devonian", "STAGE": null, "REFERENCES": "1, 2, 38, 330" }, "geometry": { "type": "Point", "coordinates": [ -78.5, 42.0 ] } },
{ "type": "Feature", "properties": { "FLD_NAME": "Tuyrnazy", "COUNTRY": "Russia", "EUR_MMBOE": 1000.0, "PRV_USGS_N": "Volga-Ural Region", "ERA": "Paleozoic", "SYSTEM": "Devonian", "SERIES": "Upper Devonian", "STAGE": null, "REFERENCES": "1, 2, 38" }, "geometry": { "type": "Point", "coordinates": [ 53.511, 54.536 ] } },
{ "type": "Feature", "properties": { "FLD_NAME": "Serafimovka", "COUNTRY": "Russia", "EUR_MMBOE": 500.0, "PRV_USGS_N": "Volga-Ural Region", "ERA": "Paleozoic", "SYSTEM": "Devonian", "SERIES": "Middle Devonian", "STAGE": null, "REFERENCES": "38, 129" }, "geometry": { "type": "Point", "coordinates": [ 53.573, 54.395 ] } },
{ "type": "Feature", "properties": { "FLD_NAME": "Shkapovo", "COUNTRY": "Russia", "EUR_MMBOE": 1251.0, "PRV_USGS_N": "Volga-Ural Region", "ERA": "Paleozoic", "SYSTEM": "Devonian", "SERIES": "Middle Devonian", "STAGE": null, "REFERENCES": "1, 2, 127" }, "geometry": { "type": "Point", "coordinates": [ 53.55, 54.924 ] } },
{ "type": "Feature", "properties": { "FLD_NAME": "Elephant", "COUNTRY": "Libya", "EUR_MMBOE": 758.333, "PRV_USGS_N": "Murzuk Basin", "ERA": "Paleozoic", "SYSTEM": "Ordovician", "SERIES": "Middle Ordovician", "STAGE": null, "REFERENCES": "3, 4, 38, 601" }, "geometry": { "type": "Point", "coordinates": [ 11.583, 26.0 ] } },
{ "type": "Feature", "properties": { "FLD_NAME": "Hateiba", "COUNTRY": "Libya", "EUR_MMBOE": 795.04, "PRV_USGS_N": "Sirte Basin", "ERA": "Paleozoic", "SYSTEM": "Ordovician", "SERIES": "Middle Ordovician", "STAGE": null, "REFERENCES": "1, 2, 3, 38, 484" }, "geometry": { "type": "Point", "coordinates": [ 19.683, 29.717 ] } },
{ "type": "Feature", "properties": { "FLD_NAME": "Abu Jifan", "COUNTRY": "Saudi Arabia", "EUR_MMBOE": 560.0, "PRV_USGS_N": "Widyan Basin-Int. Platform", "ERA": "Paleozoic", "SYSTEM": "Ordovician", "SERIES": "Middle Ordovician", "STAGE": null, "REFERENCES": "2, 97, 783, 786" }, "geometry": { "type": "Point", "coordinates": [ 47.919, 24.77 ] } },
{ "type": "Feature", "properties": { "FLD_NAME": "Rhourde El Baguel", "COUNTRY": "Algeria", "EUR_MMBOE": 688.01, "PRV_USGS_N": "Trias\/Ghadames Basin", "ERA": "Neo-Proterozoic", "SYSTEM": "Ediacaran", "SERIES": null, "STAGE": null, "REFERENCES": "1, 2, 3, 38, 146, 920" }, "geometry": { "type": "Point", "coordinates": [ 6.934, 31.391 ] } },
{ "type": "Feature", "properties": { "FLD_NAME": "Samotlor", "COUNTRY": "Russia", "EUR_MMBOE": 6619.462, "PRV_USGS_N": "West Siberian Basin", "ERA": "Mesozoic", "SYSTEM": "Cretaceous", "SERIES": "Lower Cretaceous", "STAGE": null, "REFERENCES": "1, 2, 3, 38, 761, 909, 910, 911, 914" }, "geometry": { "type": "Point", "coordinates": [ 76.749, 61.122 ] } },
{ "type": "Feature", "properties": { "FLD_NAME": "Duri", "COUNTRY": "Indonesia", "EUR_MMBOE": 1691.37, "PRV_USGS_N": "Central Sumatra Basin", "ERA": "Cenozoic", "SYSTEM": "Neogene", "SERIES": "Miocene", "STAGE": "Messinian", "REFERENCES": "2, 3, 38, 307, 308, 309, 315" }, "geometry": { "type": "Point", "coordinates": [ 101.23, 1.296 ] } },
{ "type": "Feature", "properties": { "FLD_NAME": "Ahwaz", "COUNTRY": "Iran", "EUR_MMBOE": 29474.508, "PRV_USGS_N": "Zagros Fold Belt", "ERA": "Cenozoic", "SYSTEM": "Paleogene", "SERIES": "Oligocene", "STAGE": null, "REFERENCES": "1, 2, 3, 38, 645, 646, 1094" }, "geometry": { "type": "Point", "coordinates": [ 48.769, 31.309 ] } },
{ "type": "Feature", "properties": { "FLD_NAME": "Cusiana", "COUNTRY": "Colombia", "EUR_MMBOE": 1961.247, "PRV_USGS_N": "Llanos Basin", "ERA": "Cenozoic", "SYSTEM": "Paleogene", "SERIES": "Eocene", "STAGE": null, "REFERENCES": "3, 4, 38, 259, 260, 264, 875" }, "geometry": { "type": "Point", "coordinates": [ -72.704, 4.999 ] } },
{ "type": "Feature", "properties": { "FLD_NAME": "Rabi-Kounga", "COUNTRY": "Gabon", "EUR_MMBOE": 1000.0, "PRV_USGS_N": "West-central Coastal", "ERA": "Mesozoic", "SYSTEM": "Cretaceous", "SERIES": "Lower Cretaceous", "STAGE": null, "REFERENCES": "38, 284, 456, 894" }, "geometry": { "type": "Point", "coordinates": [ 9.85, -1.883 ] } },
{ "type": "Feature", "properties": { "FLD_NAME": "Gindungo 1", "COUNTRY": "Angola", "EUR_MMBOE": 1166.667, "PRV_USGS_N": "West-central Coastal", "ERA": "Cenozoic", "SYSTEM": "Paleogene", "SERIES": "Oligocene", "STAGE": null, "REFERENCES": "947, 1057" }, "geometry": { "type": "Point", "coordinates": [ 11.363, -7.181 ] } },
{ "type": "Feature", "properties": { "FLD_NAME": "Claymore", "COUNTRY": "United Kingdom", "EUR_MMBOE": 500.0, "PRV_USGS_N": "North Sea Graben", "ERA": "Mesozoic", "SYSTEM": "Cretaceous", "SERIES": "Lower Cretaceous", "STAGE": null, "REFERENCES": "2, 3,134, 510, 905" }, "geometry": { "type": "Point", "coordinates": [ 0.333, 58.417 ] } },
{ "type": "Feature", "properties": { "FLD_NAME": "Agbami", "COUNTRY": "Nigeria", "EUR_MMBOE": 1059.435, "PRV_USGS_N": "Niger Delta", "ERA": "Cenozoic", "SYSTEM": "Neogene", "SERIES": "Pliocene", "STAGE": "Piacenzian", "REFERENCES": "3, 4, 40, 464, 875, 916, 919, 1151" }, "geometry": { "type": "Point", "coordinates": [ 5.337, 3.277 ] } },
{ "type": "Feature", "properties": { "FLD_NAME": "Bonga", "COUNTRY": "Nigeria", "EUR_MMBOE": 1200.0, "PRV_USGS_N": "Niger Delta", "ERA": "Cenozoic", "SYSTEM": "Neogene", "SERIES": "Miocene", "STAGE": null, "REFERENCES": "3, 4, 40, 875, 900, 916, 919, 1064" }, "geometry": { "type": "Point", "coordinates": [ 4.359, 4.33 ] } },
{ "type": "Feature", "properties": { "FLD_NAME": "Dalia 1", "COUNTRY": "Angola", "EUR_MMBOE": 783.333, "PRV_USGS_N": "West-central Coastal", "ERA": "Cenozoic", "SYSTEM": "Paleogene", "SERIES": "Oligocene", "STAGE": null, "REFERENCES": "3, 4, 38, 151, 875, 887" }, "geometry": { "type": "Point", "coordinates": [ 11.433, -7.816 ] } },
{ "type": "Feature", "properties": { "FLD_NAME": "Dalia 2", "COUNTRY": "Angola", "EUR_MMBOE": 520.833, "PRV_USGS_N": "West-central Coastal", "ERA": "Cenozoic", "SYSTEM": "Paleogene", "SERIES": "Oligocene", "STAGE": null, "REFERENCES": "3, 4, 151, 875, 887" }, "geometry": { "type": "Point", "coordinates": [ 11.472, -7.804 ] } },
{ "type": "Feature", "properties": { "FLD_NAME": "Kuito", "COUNTRY": "Angola", "EUR_MMBOE": 808.333, "PRV_USGS_N": "West-central Coastal", "ERA": "Cenozoic", "SYSTEM": "Paleogene", "SERIES": "Oligocene", "STAGE": null, "REFERENCES": "3, 4, 38, 152, 153, 875, 887" }, "geometry": { "type": "Point", "coordinates": [ 11.308, -5.669 ] } },
{ "type": "Feature", "properties": { "FLD_NAME": "Girassol", "COUNTRY": "Angola", "EUR_MMBOE": 880.0, "PRV_USGS_N": "West-central Coastal", "ERA": "Cenozoic", "SYSTEM": "Paleogene", "SERIES": "Oligocene", "STAGE": null, "REFERENCES": "3, 4, 38, 40, 875, 887, 979" }, "geometry": { "type": "Point", "coordinates": [ 11.422, -7.803 ] } },
{ "type": "Feature", "properties": { "FLD_NAME": "Agan", "COUNTRY": "Russia", "EUR_MMBOE": 529.228, "PRV_USGS_N": "West Siberian Basin", "ERA": "Mesozoic", "SYSTEM": "Cretaceous", "SERIES": "Lower Cretaceous", "STAGE": null, "REFERENCES": "2, 3, 38, 914" }, "geometry": { "type": "Point", "coordinates": [ 76.197, 61.467 ] } },
{ "type": "Feature", "properties": { "FLD_NAME": "Bystrina", "COUNTRY": "Russia", "EUR_MMBOE": 786.47, "PRV_USGS_N": "West Siberian Basin", "ERA": "Mesozoic", "SYSTEM": "Cretaceous", "SERIES": "Lower Cretaceous", "STAGE": null, "REFERENCES": "3, 38, 914" },