{
"type": "FeatureCollection",
"name": "OilPorts",
"crs": { "type": "name", "properties": { "name": "urn:ogc:def:crs:OGC:1.3:CRS84" } },
"features": [
{ "type": "Feature", "properties": { "PORT_NAME": "TOMAKOMAI KO", "COUNTRY": "JP", "MAX_VESSEL": "L" }, "geometry": { "type": "Point", "coordinates": [ 141.633, 42.633 ] } },
{ "type": "Feature", "properties": { "PORT_NAME": "MURORAN KO", "COUNTRY": "JP", "MAX_VESSEL": "L" }, "geometry": { "type": "Point", "coordinates": [ 140.967, 42.35 ] } },
{ "type": "Feature", "properties": { "PORT_NAME": "RAS SHUKHIER", "COUNTRY": "EG", "MAX_VESSEL": "M" }, "geometry": { "type": "Point", "coordinates": [ 33.283, 28.133 ] } },
{ "type": "Feature", "properties": { "PORT_NAME": "AL AQABAH", "COUNTRY": "JO", "MAX_VESSEL": "M" }, "geometry": { "type": "Point", "coordinates": [ 35.0, 29.517 ] } },
{ "type": "Feature", "properties": { "PORT_NAME": "YANBU", "COUNTRY": "SA", "MAX_VESSEL": "M" }, "geometry": { "type": "Point", "coordinates": [ 38.05, 24.083 ] } },
{ "type": "Feature", "properties": { "PORT_NAME": "JIZAN", "COUNTRY": "SA", "MAX_VESSEL": "M" }, "geometry": { "type": "Point", "coordinates": [ 42.483, 16.9 ] } },
{ "type": "Feature", "properties": { "PORT_NAME": "CROMARTY", "COUNTRY": "GB", "MAX_VESSEL": "M" }, "geometry": { "type": "Point", "coordinates": [ -4.033, 57.683 ] } },
{ "type": "Feature", "properties": { "PORT_NAME": "INVERGORDON", "COUNTRY": "GB", "MAX_VESSEL": "L" }, "geometry": { "type": "Point", "coordinates": [ -4.167, 57.683 ] } },
{ "type": "Feature", "properties": { "PORT_NAME": "LYNESS", "COUNTRY": "GB", "MAX_VESSEL": null }, "geometry": { "type": "Point", "coordinates": [ -3.2, 58.833 ] } },
{ "type": "Feature", "properties": { "PORT_NAME": "SCAPA BAY", "COUNTRY": "GB", "MAX_VESSEL": "L" }, "geometry": { "type": "Point", "coordinates": [ -2.983, 58.95 ] } },
{ "type": "Feature", "properties": { "PORT_NAME": "GEBIG", "COUNTRY": "BR", "MAX_VESSEL": "L" }, "geometry": { "type": "Point", "coordinates": [ -44.217, -23.05 ] } },
{ "type": "Feature", "properties": { "PORT_NAME": "ULSAN", "COUNTRY": "KR", "MAX_VESSEL": "L" }, "geometry": { "type": "Point", "coordinates": [ 129.4, 35.45 ] } },
{ "type": "Feature", "properties": { "PORT_NAME": "ZHEN HAI", "COUNTRY": "CN", "MAX_VESSEL": "M" }, "geometry": { "type": "Point", "coordinates": [ 121.7, 29.95 ] } },
{ "type": "Feature", "properties": { "PORT_NAME": "HANKOW", "COUNTRY": "CN", "MAX_VESSEL": null }, "geometry": { "type": "Point", "coordinates": [ 114.283, 30.583 ] } },
{ "type": "Feature", "properties": { "PORT_NAME": "DOUALA", "COUNTRY": "CM", "MAX_VESSEL": "L" }, "geometry": { "type": "Point", "coordinates": [ 9.683, 4.05 ] } },
{ "type": "Feature", "properties": { "PORT_NAME": "KOLE OIL TERMINAL", "COUNTRY": "CM", "MAX_VESSEL": "M" }, "geometry": { "type": "Point", "coordinates": [ 8.55, 4.25 ] } },
{ "type": "Feature", "properties": { "PORT_NAME": "PORT GENTIL", "COUNTRY": "GA", "MAX_VESSEL": "L" }, "geometry": { "type": "Point", "coordinates": [ 8.8, -0.7 ] } },
{ "type": "Feature", "properties": { "PORT_NAME": "CAP LOPEZ", "COUNTRY": "GA", "MAX_VESSEL": "L" }, "geometry": { "type": "Point", "coordinates": [ 8.717, -0.633 ] } },
{ "type": "Feature", "properties": { "PORT_NAME": "TERNATE", "COUNTRY": "ID", "MAX_VESSEL": "M" }, "geometry": { "type": "Point", "coordinates": [ 127.383, 0.783 ] } },
{ "type": "Feature", "properties": { "PORT_NAME": "SALAWATI", "COUNTRY": "ID", "MAX_VESSEL": "M" }, "geometry": { "type": "Point", "coordinates": [ 130.983, -1.35 ] } },
{ "type": "Feature", "properties": { "PORT_NAME": "BINTULU PORT", "COUNTRY": "MY", "MAX_VESSEL": "L" }, "geometry": { "type": "Point", "coordinates": [ 113.067, 3.267 ] } },
{ "type": "Feature", "properties": { "PORT_NAME": "LUTONG", "COUNTRY": "MY", "MAX_VESSEL": "L" }, "geometry": { "type": "Point", "coordinates": [ 114.0, 4.467 ] } },
{ "type": "Feature", "properties": { "PORT_NAME": "CIVITAVECCHIA", "COUNTRY": "IT", "MAX_VESSEL": "M" }, "geometry": { "type": "Point", "coordinates": [ 11.783, 42.1 ] } },
{ "type": "Feature", "properties": { "PORT_NAME": "NAPOLI", "COUNTRY": "IT", "MAX_VESSEL": "L" }, "geometry": { "type": "Point", "coordinates": [ 14.267, 40.85 ] } },
{ "type": "Feature", "properties": { "PORT_NAME": "SULLOM VOE", "COUNTRY": "GB", "MAX_VESSEL": "L" }, "geometry": { "type": "Point", "coordinates": [ -1.3, 60.467 ] } },
{ "type": "Feature", "properties": { "PORT_NAME": "HIROSHIMA", "COUNTRY": "JP", "MAX_VESSEL": "L" }, "geometry": { "type": "Point", "coordinates": [ 132.467, 34.35 ] } },
{ "type": "Feature", "properties": { "PORT_NAME": "JOSE IGNACIO", "COUNTRY": "UY", "MAX_VESSEL": null }, "geometry": { "type": "Point", "coordinates": [ -54.7, -34.95 ] } },
{ "type": "Feature", "properties": { "PORT_NAME": "BAR", "COUNTRY": "ME", "MAX_VESSEL": "L" }, "geometry": { "type": "Point", "coordinates": [ 19.083, 42.083 ] } },
{ "type": "Feature", "properties": { "PORT_NAME": "DJENO TERMINAL", "COUNTRY": "CG", "MAX_VESSEL": "L" }, "geometry": { "type": "Point", "coordinates": [ 11.9, -4.933 ] } },
{ "type": "Feature", "properties": { "PORT_NAME": "N'KOSSA TERMINAL", "COUNTRY": "CG", "MAX_VESSEL": null }, "geometry": { "type": "Point", "coordinates": [ 11.567, -5.267 ] } },
{ "type": "Feature", "properties": { "PORT_NAME": "YOHO TERMINAL", "COUNTRY": "NG", "MAX_VESSEL": null }, "geometry": { "type": "Point", "coordinates": [ 7.467, 4.017 ] } },
{ "type": "Feature", "properties": { "PORT_NAME": "SEA EAGLE TERMINAL", "COUNTRY": "NG", "MAX_VESSEL": "L" }, "geometry": { "type": "Point", "coordinates": [ 5.317, 4.8 ] } },
{ "type": "Feature", "properties": { "PORT_NAME": "QUA IBOE OIL TERMINAL", "COUNTRY": "NG", "MAX_VESSEL": "L" }, "geometry": { "type": "Point", "coordinates": [ 8.033, 4.233 ] } },
{ "type": "Feature", "properties": { "PORT_NAME": "PENNINGTON OIL TERMINAL", "COUNTRY": "NG", "MAX_VESSEL": "L" }, "geometry": { "type": "Point", "coordinates": [ 5.617, 4.25 ] } },
{ "type": "Feature", "properties": { "PORT_NAME": "BONNY OFFSHORE TERMINAL", "COUNTRY": "NG", "MAX_VESSEL": "L" }, "geometry": { "type": "Point", "coordinates": [ 7.233, 4.183 ] } },
{ "type": "Feature", "properties": { "PORT_NAME": "OGUENDJO TERMINAL", "COUNTRY": "GA", "MAX_VESSEL": "L" }, "geometry": { "type": "Point", "coordinates": [ 8.917, -1.467 ] } },
{ "type": "Feature", "properties": { "PORT_NAME": "GAMBA OIL TERMINAL", "COUNTRY": "GA", "MAX_VESSEL": "L" }, "geometry": { "type": "Point", "coordinates": [ 10.0, -2.833 ] } },
{ "type": "Feature", "properties": { "PORT_NAME": "MALONGO OIL TERMINAL", "COUNTRY": "AO", "MAX_VESSEL": "L" }, "geometry": { "type": "Point", "coordinates": [ 12.083, -5.433 ] } },
{ "type": "Feature", "properties": { "PORT_NAME": "PALANCA TERMINAL", "COUNTRY": "AO", "MAX_VESSEL": "L" }, "geometry": { "type": "Point", "coordinates": [ 12.4, -6.95 ] } },
{ "type": "Feature", "properties": { "PORT_NAME": "LUANDA", "COUNTRY": "AO", "MAX_VESSEL": "L" }, "geometry": { "type": "Point", "coordinates": [ 13.25, -8.8 ] } },
{ "type": "Feature", "properties": { "PORT_NAME": "BONNY", "COUNTRY": "NG", "MAX_VESSEL": "L" }, "geometry": { "type": "Point", "coordinates": [ 7.167, 4.45 ] } },
{ "type": "Feature", "properties": { "PORT_NAME": "KAMSAR", "COUNTRY": "GN", "MAX_VESSEL": "M" }, "geometry": { "type": "Point", "coordinates": [ -14.617, 10.633 ] } },
{ "type": "Feature", "properties": { "PORT_NAME": "TIANJIN XIN GANG", "COUNTRY": "CN", "MAX_VESSEL": "L" }, "geometry": { "type": "Point", "coordinates": [ 117.833, 38.967 ] } },
{ "type": "Feature", "properties": { "PORT_NAME": "DALIAN", "COUNTRY": "CN", "MAX_VESSEL": "L" }, "geometry": { "type": "Point", "coordinates": [ 121.667, 38.917 ] } },
{ "type": "Feature", "properties": { "PORT_NAME": "PORT-LA-NOUVELLE", "COUNTRY": "FR", "MAX_VESSEL": "M" }, "geometry": { "type": "Point", "coordinates": [ 3.067, 43.017 ] } },
{ "type": "Feature", "properties": { "PORT_NAME": "PORT SAINT LOUIS DU RHONE", "COUNTRY": "FR", "MAX_VESSEL": "L" }, "geometry": { "type": "Point", "coordinates": [ 4.817, 43.383 ] } },
{ "type": "Feature", "properties": { "PORT_NAME": "FOS", "COUNTRY": "FR", "MAX_VESSEL": "L" }, "geometry": { "type": "Point", "coordinates": [ 4.883, 43.417 ] } },
{ "type": "Feature", "properties": { "PORT_NAME": "SARROCH OIL TERMINAL", "COUNTRY": "IT", "MAX_VESSEL": "L" }, "geometry": { "type": "Point", "coordinates": [ 9.033, 39.083 ] } },
{ "type": "Feature", "properties": { "PORT_NAME": "VICTORIA", "COUNTRY": "MY", "MAX_VESSEL": "L" }, "geometry": { "type": "Point", "coordinates": [ 115.233, 5.283 ] } },
{ "type": "Feature", "properties": { "PORT_NAME": "TANJUNG ARANG  (BUNYU)", "COUNTRY": "ID", "MAX_VESSEL": "M" }, "geometry": { "type": "Point", "coordinates": [ 117.833, 3.467 ] } },
{ "type": "Feature", "properties": { "PORT_NAME": "BONTANG LNG TERMINAL", "COUNTRY": "ID", "MAX_VESSEL": "L" }, "geometry": { "type": "Point", "coordinates": [ 117.483, 0.1 ] } },
{ "type": "Feature", "properties": { "PORT_NAME": "TANJUNG SANTAN", "COUNTRY": "ID", "MAX_VESSEL": "M" }, "geometry": { "type": "Point", "coordinates": [ 117.533, -0.1 ] } },
{ "type": "Feature", "properties": { "PORT_NAME": "POZOS COLORADOS", "COUNTRY": "CO", "MAX_VESSEL": "L" }, "geometry": { "type": "Point", "coordinates": [ -74.25, 11.15 ] } },
{ "type": "Feature", "properties": { "PORT_NAME": "PUERTO MOIN", "COUNTRY": "CR", "MAX_VESSEL": "L" }, "geometry": { "type": "Point", "coordinates": [ -83.083, 10.0 ] } },
{ "type": "Feature", "properties": { "PORT_NAME": "HAZIRA", "COUNTRY": "IN", "MAX_VESSEL": "L" }, "geometry": { "type": "Point", "coordinates": [ 72.633, 21.083 ] } },
{ "type": "Feature", "properties": { "PORT_NAME": "SHIMONOSEKI", "COUNTRY": "JP", "MAX_VESSEL": "M" }, "geometry": { "type": "Point", "coordinates": [ 130.933, 33.933 ] } },
{ "type": "Feature", "properties": { "PORT_NAME": "PORT COSTA", "COUNTRY": "US", "MAX_VESSEL": null }, "geometry": { "type": "Point", "coordinates": [ -122.183, 38.05 ] } },
{ "type": "Feature", "properties": { "PORT_NAME": "KLAIPEDA", "COUNTRY": "LT", "MAX_VESSEL": "M" }, "geometry": { "type": "Point", "coordinates": [ 21.117, 55.717 ] } },
{ "type": "Feature", "properties": { "PORT_NAME": "PUERTO CASTRO", "COUNTRY": "CL", "MAX_VESSEL": "M" }, "geometry": { "type": "Point", "coordinates": [ -73.767, -42.483 ] } },
{ "type": "Feature", "properties": { "PORT_NAME": "INCHON", "COUNTRY": "KR", "MAX_VESSEL": "M" }, "geometry": { "type": "Point", "coordinates": [ 126.617, 37.467 ] } },
{ "type": "Feature", "properties": { "PORT_NAME": "YOSU", "COUNTRY": "KR", "MAX_VESSEL": "L" }, "geometry": { "type": "Point", "coordinates": [ 127.75, 34.733 ] } },
{ "type": "Feature", "properties": { "PORT_NAME": "MATI", "COUNTRY": "PH", "MAX_VESSEL": "L" }, "geometry": { "type": "Point", "coordinates": [ 126.217, 6.95 ] } },
{ "type": "Feature", "properties": { "PORT_NAME": "SENIPAH OIL TERMINAL", "COUNTRY": "ID", "MAX_VESSEL": "M" }, "geometry": { "type": "Point", "coordinates": [ 117.167, -0.95 ] } },
{ "type": "Feature", "properties": { "PORT_NAME": "LAWI LAWI OIL TERMINAL", "COUNTRY": "ID", "MAX_VESSEL": "L" }, "geometry": { "type": "Point", "coordinates": [ 116.767, -1.45 ] } },
{ "type": "Feature", "properties": { "PORT_NAME": "KOTA BARU", "COUNTRY": "ID", "MAX_VESSEL": "M" }, "geometry": { "type": "Point", "coordinates": [ 116.217, -3.233 ] } },
{ "type": "Feature", "properties": { "PORT_NAME": "BANJARMASIN", "COUNTRY": "ID", "MAX_VESSEL": "M" }, "geometry": { "type": "Point", "coordinates": [ 114.583, -3.333 ] } },
{ "type": "Feature", "properties": { "PORT_NAME": "PONTIANAK", "COUNTRY": "ID", "MAX_VESSEL": "M" }, "geometry": { "type": "Point", "coordinates": [ 109.333, -0.017 ] } },
{ "type": "Feature", "properties": { "PORT_NAME": "SUNGAIPAKNING", "COUNTRY": "ID", "MAX_VESSEL": "L" }, "geometry": { "type": "Point", "coordinates": [ 102.167, 1.35 ] } },
{ "type": "Feature", "properties": { "PORT_NAME": "BANTEN", "COUNTRY": "ID", "MAX_VESSEL": "M" }, "geometry": { "type": "Point", "coordinates": [ 105.967, -6.017 ] } },
{ "type": "Feature", "properties": { "PORT_NAME": "TANJUNG SEKONG", "COUNTRY": "ID", "MAX_VESSEL": "M" }, "geometry": { "type": "Point", "coordinates": [ 106.0, -5.917 ] } },
{ "type": "Feature", "properties": { "PORT_NAME": "JAKARTA", "COUNTRY": "ID", "MAX_VESSEL": "M" }, "geometry": { "type": "Point", "coordinates": [ 106.883, -6.1 ] } },
{ "type": "Feature", "properties": { "PORT_NAME": "PALMA DE MALLORCA", "COUNTRY": "ES", "MAX_VESSEL": "L" }, "geometry": { "type": "Point", "coordinates": [ 2.633, 39.567 ] } },
{ "type": "Feature", "properties": { "PORT_NAME": "SANTA CRUZ DE TENERIFE", "COUNTRY": "ES", "MAX_VESSEL": "L" }, "geometry": { "type": "Point", "coordinates": [ -16.233, 28.467 ] } },
{ "type": "Feature", "properties": { "PORT_NAME": "HUELVA", "COUNTRY": "ES", "MAX_VESSEL": "M" }, "geometry": { "type": "Point", "coordinates": [ -6.95, 37.25 ] } },
{ "type": "Feature", "properties": { "PORT_NAME": "TOPOLOBAMPO", "COUNTRY": "MX", "MAX_VESSEL": "L" }, "geometry": { "type": "Point", "coordinates": [ -109.067, 25.6 ] } },
{ "type": "Feature", "properties": { "PORT_NAME": "TRAMANDAI", "COUNTRY": "BR", "MAX_VESSEL": "L" }, "geometry": { "type": "Point", "coordinates": [ -50.133, -29.983 ] } },
{ "type": "Feature", "properties": { "PORT_NAME": "PORT BOUET", "COUNTRY": "CI", "MAX_VESSEL": "L" }, "geometry": { "type": "Point", "coordinates": [ -3.967, 5.233 ] } },
{ "type": "Feature", "properties": { "PORT_NAME": "SALTPOND", "COUNTRY": "GH", "MAX_VESSEL": null }, "geometry": { "type": "Point", "coordinates": [ -1.05, 5.2 ] } },
{ "type": "Feature", "properties": { "PORT_NAME": "TEMA", "COUNTRY": "GH", "MAX_VESSEL": "M" }, "geometry": { "type": "Point", "coordinates": [ 0.017, 5.617 ] } },
{ "type": "Feature", "properties": { "PORT_NAME": "LOME", "COUNTRY": "TG", "MAX_VESSEL": "L" }, "geometry": { "type": "Point", "coordinates": [ 1.283, 6.133 ] } },
{ "type": "Feature", "properties": { "PORT_NAME": "LAGOS", "COUNTRY": "NG", "MAX_VESSEL": "L" }, "geometry": { "type": "Point", "coordinates": [ 3.4, 6.4 ] } },
{ "type": "Feature", "properties": { "PORT_NAME": "ESCRAVOS OIL TERMINAL", "COUNTRY": "NG", "MAX_VESSEL": "L" }, "geometry": { "type": "Point", "coordinates": [ 5.0, 5.5 ] } },
{ "type": "Feature", "properties": { "PORT_NAME": "BRASS OIL TERMINAL", "COUNTRY": "NG", "MAX_VESSEL": "L" }, "geometry": { "type": "Point", "coordinates": [ 6.283, 4.067 ] } },
{ "type": "Feature", "properties": { "PORT_NAME": "TAZERKA OIL TERMINAL", "COUNTRY": "TN", "MAX_VESSEL": "M" }, "geometry": { "type": "Point", "coordinates": [ 11.683, 36.6 ] } },
{ "type": "Feature", "properties": { "PORT_NAME": "ALGECIRAS", "COUNTRY": "ES", "MAX_VESSEL": "L" }, "geometry": { "type": "Point", "coordinates": [ -5.433, 36.133 ] } },
{ "type": "Feature", "properties": { "PORT_NAME": "CARTAGENA", "COUNTRY": "ES", "MAX_VESSEL": "L" }, "geometry": { "type": "Point", "coordinates": [ -0.983, 37.583 ] } },
{ "type": "Feature", "properties": { "PORT_NAME": "EL GRAO", "COUNTRY": "ES", "MAX_VESSEL": "M" }, "geometry": { "type": "Point", "coordinates": [ 0.017, 39.967 ] } },
{ "type": "Feature", "properties": { "PORT_NAME": "TARRAGONA", "COUNTRY": "ES", "MAX_VESSEL": "M" }, "geometry": { "type": "Point", "coordinates": [ 1.233, 41.1 ] } },
{ "type": "Feature", "properties": { "PORT_NAME": "FUNCHAL", "COUNTRY": "PT", "MAX_VESSEL": "L" }, "geometry": { "type": "Point", "coordinates": [ -16.917, 32.633 ] } },
{ "type": "Feature", "properties": { "PORT_NAME": "PUERTO DE BILBAO", "COUNTRY": "ES", "MAX_VESSEL": "L" }, "geometry": { "type": "Point", "coordinates": [ -3.05, 43.35 ] } },
{ "type": "Feature", "properties": { "PORT_NAME": "SANTANDER", "COUNTRY": "ES", "MAX_VESSEL": "L" }, "geometry": { "type": "Point", "coordinates": [ -3.783, 43.467 ] } },
{ "type": "Feature", "properties": { "PORT_NAME": "PORTO DE SUAPE", "COUNTRY": "BR", "MAX_VESSEL": "L" }, "geometry": { "type": "Point", "coordinates": [ -34.967, -8.4 ] } },
{ "type": "Feature", "properties": { "PORT_NAME": "TUBAN", "COUNTRY": "ID", "MAX_VESSEL": null }, "geometry": { "type": "Point", "coordinates": [ 112.15, -6.733 ] } },
{ "type": "Feature", "properties": { "PORT_NAME": "PANARUKAN", "COUNTRY": "ID", "MAX_VESSEL": null }, "geometry": { "type": "Point", "coordinates": [ 113.933, -7.7 ] } },
{ "type": "Feature", "properties": { "PORT_NAME": "PORTLAND", "COUNTRY": "US", "MAX_VESSEL": "L" }, "geometry": { "type": "Point", "coordinates": [ -70.25, 43.667 ] } },
{ "type": "Feature", "properties": { "PORT_NAME": "HALIFAX", "COUNTRY": "CA", "MAX_VESSEL": "L" }, "geometry": { "type": "Point", "coordinates": [ -63.583, 44.65 ] } },
{ "type": "Feature", "properties": { "PORT_NAME": "ST JOHN", "COUNTRY": "CA", "MAX_VESSEL": "L" }, "geometry": { "type": "Point", "coordinates": [ -66.05, 45.267 ] } },
{ "type": "Feature", "properties": { "PORT_NAME": "RABIGH", "COUNTRY": "SA", "MAX_VESSEL": "M" }, "geometry": { "type": "Point", "coordinates": [ 38.983, 22.733 ] } },
{ "type": "Feature", "properties": { "PORT_NAME": "RAS LAFFAN", "COUNTRY": "QA", "MAX_VESSEL": "M" }, "geometry": { "type": "Point", "coordinates": [ 51.583, 25.917 ] } },
{ "type": "Feature", "properties": { "PORT_NAME": "TANJUNGPANDAN", "COUNTRY": "ID", "MAX_VESSEL": "M" }, "geometry": { "type": "Point", "coordinates": [ 107.633, -2.75 ] } },
{ "type": "Feature", "properties": { "PORT_NAME": "BATANGAS CITY", "COUNTRY": "PH", "MAX_VESSEL": "L" }, "geometry": { "type": "Point", "coordinates": [ 121.05, 13.75 ] } },
{ "type": "Feature", "properties": { "PORT_NAME": "MARIVELES", "COUNTRY": "PH", "MAX_VESSEL": "M" }, "geometry": { "type": "Point", "coordinates": [ 120.483, 14.433 ] } },
{ "type": "Feature", "properties": { "PORT_NAME": "SAN FERNANDO HARBOR", "COUNTRY": "PH", "MAX_VESSEL": "M" }, "geometry": { "type": "Point", "coordinates": [ 120.317, 16.617 ] } },
{ "type": "Feature", "properties": { "PORT_NAME": "LON SHUI TERMINAL", "COUNTRY": "CN", "MAX_VESSEL": "M" }, "geometry": { "type": "Point", "coordinates": [ 115.683, 20.833 ] } },
{ "type": "Feature", "properties": { "PORT_NAME": "ARZEW", "COUNTRY": "DZ", "MAX_VESSEL": "M" }, "geometry": { "type": "Point", "coordinates": [ -0.3, 35.85 ] } },
{ "type": "Feature", "properties": { "PORT_NAME": "ARZEW EL DJEDID", "COUNTRY": "DZ", "MAX_VESSEL": "M" }, "geometry": { "type": "Point", "coordinates": [ -0.25, 35.817 ] } },
{ "type": "Feature", "properties": { "PORT_NAME": "PULAU BUKOM", "COUNTRY": "SG", "MAX_VESSEL": "L" }, "geometry": { "type": "Point", "coordinates": [ 103.767, 1.233 ] } },
{ "type": "Feature", "properties": { "PORT_NAME": "PULAU SEBAROK", "COUNTRY": "SG", "MAX_VESSEL": "L" }, "geometry": { "type": "Point", "coordinates": [ 103.8, 1.2 ] } },
{ "type": "Feature", "properties": { "PORT_NAME": "TANJUNGUBAN", "COUNTRY": "ID", "MAX_VESSEL": "L" }, "geometry": { "type": "Point", "coordinates": [ 104.217, 1.067 ] } },
{ "type": "Feature", "properties": { "PORT_NAME": "CINTA OIL TERMINAL", "COUNTRY": "ID", "MAX_VESSEL": "M" }, "geometry": { "type": "Point", "coordinates": [ 106.233, -5.5 ] } },
{ "type": "Feature", "properties": { "PORT_NAME": "LA CORUNA", "COUNTRY": "ES", "MAX_VESSEL": "L" }, "geometry": { "type": "Point", "coordinates": [ -8.4, 43.367 ] } },
{ "type": "Feature", "properties": { "PORT_NAME": "BROFJORDEN", "COUNTRY": "SE", "MAX_VESSEL": "M" }, "geometry": { "type": "Point", "coordinates": [ 11.417, 58.383 ] } },
{ "type": "Feature", "properties": { "PORT_NAME": "NEW MANGALORE", "COUNTRY": "IN", "MAX_VESSEL": "L" }, "geometry": { "type": "Point", "coordinates": [ 74.817, 12.917 ] } },
{ "type": "Feature", "properties": { "PORT_NAME": "KAMARAJAR PORT", "COUNTRY": "IN", "MAX_VESSEL": "M" }, "geometry": { "type": "Point", "coordinates": [ 80.317, 13.267 ] } },
{ "type": "Feature", "properties": { "PORT_NAME": "SIKKA", "COUNTRY": "IN", "MAX_VESSEL": "L" }, "geometry": { "type": "Point", "coordinates": [ 69.833, 22.433 ] } },
{ "type": "Feature", "properties": { "PORT_NAME": "MUNDRA", "COUNTRY": "IN", "MAX_VESSEL": "L" }, "geometry": { "type": "Point", "coordinates": [ 69.7, 22.733 ] } },
{ "type": "Feature", "properties": { "PORT_NAME": "DAHEJ", "COUNTRY": "IN", "MAX_VESSEL": "L" }, "geometry": { "type": "Point", "coordinates": [ 72.533, 21.7 ] } },
{ "type": "Feature", "properties": { "PORT_NAME": "JABUNG BATANGHARI MARINE TERMINAL", "COUNTRY": "ID", "MAX_VESSEL": "M" }, "geometry": { "type": "Point", "coordinates": [ 104.067, -0.917 ] } },
{ "type": "Feature", "properties": { "PORT_NAME": "LALANG MARINE TERMINAL", "COUNTRY": "ID", "MAX_VESSEL": null }, "geometry": { "type": "Point", "coordinates": [ 102.217, 1.183 ] } },
{ "type": "Feature", "properties": { "PORT_NAME": "BELANAK FIELD TERMINAL", "COUNTRY": "ID", "MAX_VESSEL": null }, "geometry": { "type": "Point", "coordinates": [ 106.25, 4.15 ] } },
{ "type": "Feature", "properties": { "PORT_NAME": "BELIDA MARINE TERMINAL", "COUNTRY": "ID", "MAX_VESSEL": "L" }, "geometry": { "type": "Point", "coordinates": [ 105.133, 4.133 ] } },
{ "type": "Feature", "properties": { "PORT_NAME": "ZAFARANA TERMINAL", "COUNTRY": "EG", "MAX_VESSEL": "M" }, "geometry": { "type": "Point", "coordinates": [ 32.683, 29.167 ] } },
{ "type": "Feature", "properties": { "PORT_NAME": "DORALEH", "COUNTRY": "DJ", "MAX_VESSEL": "L" }, "geometry": { "type": "Point", "coordinates": [ 43.083, 11.6 ] } },
{ "type": "Feature", "properties": { "PORT_NAME": "AL KHAIR OIL TERMINAL", "COUNTRY": "SD", "MAX_VESSEL": null }, "geometry": { "type": "Point", "coordinates": [ 37.25, 19.583 ] } },
{ "type": "Feature", "properties": { "PORT_NAME": "BESHAYER OIL TERMINAL", "COUNTRY": "SD", "MAX_VESSEL": null }, "geometry": { "type": "Point", "coordinates": [ 37.317, 19.4 ] } },
{ "type": "Feature", "properties": { "PORT_NAME": "SHARJAH OFFSHORE TERMINAL", "COUNTRY": "AE", "MAX_VESSEL": "L" }, "geometry": { "type": "Point", "coordinates": [ 55.4, 25.583 ] } },
{ "type": "Feature", "properties": { "PORT_NAME": "ZIRKUH PETROLEUM PORT", "COUNTRY": "AE", "MAX_VESSEL": null }, "geometry": { "type": "Point", "coordinates": [ 53.0, 25.017 ] } },
{ "type": "Feature", "properties": { "PORT_NAME": "CANAPORT (ST. JOHN)", "COUNTRY": "CA", "MAX_VESSEL": "L" }, "geometry": { "type": "Point", "coordinates": [ -65.983, 45.2 ] } },
{ "type": "Feature", "properties": { "PORT_NAME": "DAI HANG", "COUNTRY": "VN", "MAX_VESSEL": "M" }, "geometry": { "type": "Point", "coordinates": [ 108.683, 8.483 ] } },
{ "type": "Feature", "properties": { "PORT_NAME": "PHU MY", "COUNTRY": "VN", "MAX_VESSEL": "M" }, "geometry": { "type": "Point", "coordinates": [ 107.033, 10.583 ] } },
{ "type": "Feature", "properties": { "PORT_NAME": "MOHAMMEDIA", "COUNTRY": "MA", "MAX_VESSEL": "L" }, "geometry": { "type": "Point", "coordinates": [ -7.4, 33.717 ] } },
{ "type": "Feature", "properties": { "PORT_NAME": "BOTAS", "COUNTRY": "TR", "MAX_VESSEL": "L" }, "geometry": { "type": "Point", "coordinates": [ 35.933, 36.883 ] } },
{ "type": "Feature", "properties": { "PORT_NAME": "LIMASSOL", "COUNTRY": "CY", "MAX_VESSEL": "M" }, "geometry": { "type": "Point", "coordinates": [ 33.05, 34.667 ] } },
{ "type": "Feature", "properties": { "PORT_NAME": "LARNACA", "COUNTRY": "CY", "MAX_VESSEL": "M" }, "geometry": { "type": "Point", "coordinates": [ 33.65, 34.917 ] } },
{ "type": "Feature", "properties": { "PORT_NAME": "DHEKELIA", "COUNTRY": "CY", "MAX_VESSEL": "M" }, "geometry": { "type": "Point", "coordinates": [ 33.717, 34.967 ] } },
{ "type": "Feature", "properties": { "PORT_NAME": "TARTUS", "COUNTRY": "SY", "MAX_VESSEL": "M" }, "geometry": { "type": "Point", "coordinates": [ 35.867, 34.9 ] } },
{ "type": "Feature", "properties": { "PORT_NAME": "BANIYAS", "COUNTRY": "SY", "MAX_VESSEL": "M" }, "geometry": { "type": "Point", "coordinates": [ 35.95, 35.183 ] } },
{ "type": "Feature", "properties": { "PORT_NAME": "HONG KONG", "COUNTRY": "HK", "MAX_VESSEL": "M" }, "geometry": { "type": "Point", "coordinates": [ 114.2, 22.267 ] } },
{ "type": "Feature", "properties": { "PORT_NAME": "XIAMEN", "COUNTRY": "CN", "MAX_VESSEL": "M" }, "geometry": { "type": "Point", "coordinates": [ 118.067, 24.45 ] } },
{ "type": "Feature", "properties": { "PORT_NAME": "TAI-CHUNG KANG", "COUNTRY": "TW", "MAX_VESSEL": "M" }, "geometry": { "type": "Point", "coordinates": [ 120.5, 24.3 ] } },
{ "type": "Feature", "properties": { "PORT_NAME": "PORTO DE LEIXOES", "COUNTRY": "PT", "MAX_VESSEL": "L" }, "geometry": { "type": "Point", "coordinates": [ -8.7, 41.183 ] } },
{ "type": "Feature", "properties": { "PORT_NAME": "SINES", "COUNTRY": "PT", "MAX_VESSEL": "M" }, "geometry": { "type": "Point", "coordinates": [ -8.867, 37.95 ] } },
{ "type": "Feature", "properties": { "PORT_NAME": "DONGES", "COUNTRY": "FR", "MAX_VESSEL": "L" }, "geometry": { "type": "Point", "coordinates": [ -2.067, 47.3 ] } },
{ "type": "Feature", "properties": { "PORT_NAME": "LA PALLICE", "COUNTRY": "FR", "MAX_VESSEL": "L" }, "geometry": { "type": "Point", "coordinates": [ -1.217, 46.167 ] } },
{ "type": "Feature", "properties": { "PORT_NAME": "LE VERDON", "COUNTRY": "FR", "MAX_VESSEL": "L" }, "geometry": { "type": "Point", "coordinates": [ -1.05, 45.55 ] } },
{ "type": "Feature", "properties": { "PORT_NAME": "AIN SUKHNA TERMINAL", "COUNTRY": "EG", "MAX_VESSEL": "L" }, "geometry": { "type": "Point", "coordinates": [ 32.367, 29.583 ] } },
{ "type": "Feature", "properties": { "PORT_NAME": "KING FAHD PORT", "COUNTRY": "SA", "MAX_VESSEL": "M" }, "geometry": { "type": "Point", "coordinates": [ 38.217, 23.95 ] } },
{ "type": "Feature", "properties": { "PORT_NAME": "ARDJUNA OIL FIELD", "COUNTRY": "ID", "MAX_VESSEL": "M" }, "geometry": { "type": "Point", "coordinates": [ 107.717, -5.883 ] } },
{ "type": "Feature", "properties": { "PORT_NAME": "ROTTERDAM", "COUNTRY": "NL", "MAX_VESSEL": "L" }, "geometry": { "type": "Point", "coordinates": [ 4.483, 51.9 ] } },
{ "type": "Feature", "properties": { "PORT_NAME": "BRUNSBUTTEL ELBAHAFEN", "COUNTRY": "DE", "MAX_VESSEL": "L" }, "geometry": { "type": "Point", "coordinates": [ 9.167, 53.883 ] } },
{ "type": "Feature", "properties": { "PORT_NAME": "ROSARITO", "COUNTRY": "MX", "MAX_VESSEL": "L" }, "geometry": { "type": "Point", "coordinates": [ -117.1, 32.367 ] } },
{ "type": "Feature", "properties": { "PORT_NAME": "QUEBEC", "COUNTRY": "CA", "MAX_VESSEL": "L" }, "geometry": { "type": "Point", "coordinates": [ -71.217, 46.817 ] } },
{ "type": "Feature", "properties": { "PORT_NAME": "TAPIS MARINE TERMINAL A", "COUNTRY": "MY", "MAX_VESSEL": "L" }, "geometry": { "type": "Point", "coordinates": [ 105.017, 5.517 ] } },
{ "type": "Feature", "properties": { "PORT_NAME": "SI RACHA TERMINAL", "COUNTRY": "TH", "MAX_VESSEL": "M" }, "geometry": { "type": "Point", "coordinates": [ 100.883, 13.117 ] } },
{ "type": "Feature", "properties": { "PORT_NAME": "KO SI CHANG TERMINAL", "COUNTRY": "TH", "MAX_VESSEL": "M" }, "geometry": { "type": "Point", "coordinates": [ 100.817, 13.167 ] } },
{ "type": "Feature", "properties": { "PORT_NAME": "THANH HO CHI MINH", "COUNTRY": "VN", "MAX_VESSEL": "L" }, "geometry": { "type": "Point", "coordinates": [ 106.717, 10.767 ] } },
{ "type": "Feature", "properties": { "PORT_NAME": "TARABULUS", "COUNTRY": "LB", "MAX_VESSEL": "M" }, "geometry": { "type": "Point", "coordinates": [ 35.833, 34.45 ] } },
{ "type": "Feature", "properties": { "PORT_NAME": "ASHDOD", "COUNTRY": "IL", "MAX_VESSEL": "M" }, "geometry": { "type": "Point", "coordinates": [ 34.65, 31.817 ] } },
{ "type": "Feature", "properties": { "PORT_NAME": "AL BURAYQAH", "COUNTRY": "LY", "MAX_VESSEL": "M" }, "geometry": { "type": "Point", "coordinates": [ 19.6, 30.417 ] } },
{ "type": "Feature", "properties": { "PORT_NAME": "RAS   LANUF", "COUNTRY": "LY", "MAX_VESSEL": "M" }, "geometry": { "type": "Point", "coordinates": [ 18.567, 30.517 ] } },
{ "type": "Feature", "properties": { "PORT_NAME": "AS SIDR", "COUNTRY": "LY", "MAX_VESSEL": "L" }, "geometry": { "type": "Point", "coordinates": [ 18.367, 30.633 ] } },
{ "type": "Feature", "properties": { "PORT_NAME": "PIPAVAV BANDAR", "COUNTRY": "IN", "MAX_VESSEL": "L" }, "geometry": { "type": "Point", "coordinates": [ 71.517, 20.917 ] } },
{ "type": "Feature", "properties": { "PORT_NAME": "LHOKSEUMAWE", "COUNTRY": "ID", "MAX_VESSEL": "L" }, "geometry": { "type": "Point", "coordinates": [ 97.117, 5.25 ] } },
{ "type": "Feature", "properties": { "PORT_NAME": "PANGKALANSUSU", "COUNTRY": "ID", "MAX_VESSEL": "L" }, "geometry": { "type": "Point", "coordinates": [ 98.217, 4.117 ] } },
{ "type": "Feature", "properties": { "PORT_NAME": "DUMAI", "COUNTRY": "ID", "MAX_VESSEL": "L" }, "geometry": { "type": "Point", "coordinates": [ 101.45, 1.683 ] } },
{ "type": "Feature", "properties": { "PORT_NAME": "TRINCOMALEE HARBOR", "COUNTRY": "LK", "MAX_VESSEL": "L" }, "geometry": { "type": "Point", "coordinates": [ 81.217, 8.55 ] } },
{ "type": "Feature", "properties": { "PORT_NAME": "CHENNAI (MADRAS)", "COUNTRY": "IN", "MAX_VESSEL": "M" }, "geometry": { "type": "Point", "coordinates": [ 80.3, 13.1 ] } },
{ "type": "Feature", "properties": { "PORT_NAME": "MACHILIPATNAM", "COUNTRY": "IN", "MAX_VESSEL": "M" }, "geometry": { "type": "Point", "coordinates": [ 81.167, 16.15 ] } },
{ "type": "Feature", "properties": { "PORT_NAME": "PARADIP", "COUNTRY": "IN", "MAX_VESSEL": "M" }, "geometry": { "type": "Point", "coordinates": [ 86.683, 20.267 ] } },
{ "type": "Feature", "properties": { "PORT_NAME": "LONG BEACH", "COUNTRY": "US", "MAX_VESSEL": "L" }, "geometry": { "type": "Point", "coordinates": [ -118.183, 33.767 ] } },
{ "type": "Feature", "properties": { "PORT_NAME": "LOS ANGELES", "COUNTRY": "US", "MAX_VESSEL": "L" }, "geometry": { "type": "Point", "coordinates": [ -118.25, 33.75 ] } },
{ "type": "Feature", "properties": { "PORT_NAME": "EL SEGUNDO", "COUNTRY": "US", "MAX_VESSEL": "L" }, "geometry": { "type": "Point", "coordinates": [ -118.433, 33.917 ] } },
{ "type": "Feature", "properties": { "PORT_NAME": "CARPINTERIA", "COUNTRY": "US", "MAX_VESSEL": "L" }, "geometry": { "type": "Point", "coordinates": [ -119.517, 34.383 ] } },
{ "type": "Feature", "properties": { "PORT_NAME": "ELLWOOD", "COUNTRY": "US", "MAX_VESSEL": null }, "geometry": { "type": "Point", "coordinates": [ -119.917, 34.433 ] } },
{ "type": "Feature", "properties": { "PORT_NAME": "GAVIOTA", "COUNTRY": "US", "MAX_VESSEL": null }, "geometry": { "type": "Point", "coordinates": [ -120.2, 34.467 ] } },
{ "type": "Feature", "properties": { "PORT_NAME": "MOSS LANDING", "COUNTRY": "US", "MAX_VESSEL": null }, "geometry": { "type": "Point", "coordinates": [ -121.783, 36.8 ] } },
{ "type": "Feature", "properties": { "PORT_NAME": "DAVENPORT", "COUNTRY": "US", "MAX_VESSEL": null }, "geometry": { "type": "Point", "coordinates": [ -122.2, 37.017 ] } },
{ "type": "Feature", "properties": { "PORT_NAME": "LAZARO CARDENAS", "COUNTRY": "MX", "MAX_VESSEL": "L" }, "geometry": { "type": "Point", "coordinates": [ -102.167, 17.933 ] } },
{ "type": "Feature", "properties": { "PORT_NAME": "MANZANILLO", "COUNTRY": "MX", "MAX_VESSEL": "L" }, "geometry": { "type": "Point", "coordinates": [ -104.317, 19.05 ] } },
{ "type": "Feature", "properties": { "PORT_NAME": "PUERTO CABO BLANCO", "COUNTRY": "PE", "MAX_VESSEL": "L" }, "geometry": { "type": "Point", "coordinates": [ -81.233, -4.25 ] } },
{ "type": "Feature", "properties": { "PORT_NAME": "TUMACO", "COUNTRY": "CO", "MAX_VESSEL": "L" }, "geometry": { "type": "Point", "coordinates": [ -78.75, 1.817 ] } },
{ "type": "Feature", "properties": { "PORT_NAME": "MADRE DE DEUS", "COUNTRY": "BR", "MAX_VESSEL": "L" }, "geometry": { "type": "Point", "coordinates": [ -38.617, -12.75 ] } },
{ "type": "Feature", "properties": { "PORT_NAME": "SAO SEBASTIAO", "COUNTRY": "BR", "MAX_VESSEL": "L" }, "geometry": { "type": "Point", "coordinates": [ -45.4, -23.8 ] } },
{ "type": "Feature", "properties": { "PORT_NAME": "AZ ZAWIYA", "COUNTRY": "LY", "MAX_VESSEL": "L" }, "geometry": { "type": "Point", "coordinates": [ 12.717, 32.8 ] } },
{ "type": "Feature", "properties": { "PORT_NAME": "SKHIRA", "COUNTRY": "TN", "MAX_VESSEL": "L" }, "geometry": { "type": "Point", "coordinates": [ 10.1, 34.283 ] } },
{ "type": "Feature", "properties": { "PORT_NAME": "ANTALYA", "COUNTRY": "TR", "MAX_VESSEL": "L" }, "geometry": { "type": "Point", "coordinates": [ 30.617, 36.833 ] } },
{ "type": "Feature", "properties": { "PORT_NAME": "TRABZON", "COUNTRY": "TR", "MAX_VESSEL": "L" }, "geometry": { "type": "Point", "coordinates": [ 39.767, 41.017 ] } },
{ "type": "Feature", "properties": { "PORT_NAME": "VINH CAM RANH", "COUNTRY": "VN", "MAX_VESSEL": "L" }, "geometry": { "type": "Point", "coordinates": [ 109.167, 11.883 ] } },
{ "type": "Feature", "properties": { "PORT_NAME": "DA NANG", "COUNTRY": "VN", "MAX_VESSEL": "M" }, "geometry": { "type": "Point", "coordinates": [ 108.217, 16.1 ] } },
{ "type": "Feature", "properties": { "PORT_NAME": "PORT KLANG", "COUNTRY": "MY", "MAX_VESSEL": "L" }, "geometry": { "type": "Point", "coordinates": [ 101.4, 3.0 ] } },
{ "type": "Feature", "properties": { "PORT_NAME": "PORT DICKSON", "COUNTRY": "MY", "MAX_VESSEL": "L" }, "geometry": { "type": "Point", "coordinates": [ 101.783, 2.533 ] } },
{ "type": "Feature", "properties": { "PORT_NAME": "SOUTHAMPTON", "COUNTRY": "GB", "MAX_VESSEL": "L" }, "geometry": { "type": "Point", "coordinates": [ -1.4, 50.9 ] } },
{ "type": "Feature", "properties": { "PORT_NAME": "DUNKERQUE PORT EST", "COUNTRY": "FR", "MAX_VESSEL": "L" }, "geometry": { "type": "Point", "coordinates": [ 2.383, 51.05 ] } },
{ "type": "Feature", "properties": { "PORT_NAME": "PORT HAWKESBURY", "COUNTRY": "CA", "MAX_VESSEL": "L" }, "geometry": { "type": "Point", "coordinates": [ -61.367, 45.617 ] } },
{ "type": "Feature", "properties": { "PORT_NAME": "EAST ZEIT TERMINAL", "COUNTRY": "EG", "MAX_VESSEL": "M" }, "geometry": { "type": "Point", "coordinates": [ 33.6, 27.85 ] } },
{ "type": "Feature", "properties": { "PORT_NAME": "DUBA BULK PLANT TANKER TERMINAL", "COUNTRY": "SA", "MAX_VESSEL": "M" }, "geometry": { "type": "Point", "coordinates": [ 35.9, 27.317 ] } },
{ "type": "Feature", "properties": { "PORT_NAME": "VITAZ MARINE TERMINAL", "COUNTRY": "RU", "MAX_VESSEL": null }, "geometry": { "type": "Point", "coordinates": [ 143.55, 52.7 ] } },
{ "type": "Feature", "properties": { "PORT_NAME": "OXELOSUND", "COUNTRY": "SE", "MAX_VESSEL": "M" }, "geometry": { "type": "Point", "coordinates": [ 17.117, 58.667 ] } },
{ "type": "Feature", "properties": { "PORT_NAME": "PUNTA DE PALMAS", "COUNTRY": "VE", "MAX_VESSEL": "L" }, "geometry": { "type": "Point", "coordinates": [ -71.583, 10.783 ] } },
{ "type": "Feature", "properties": { "PORT_NAME": "BAJO GRANDE", "COUNTRY": "VE", "MAX_VESSEL": "L" }, "geometry": { "type": "Point", "coordinates": [ -71.633, 10.517 ] } },
{ "type": "Feature", "properties": { "PORT_NAME": "PUNTA CARDON", "COUNTRY": "VE", "MAX_VESSEL": "L" }, "geometry": { "type": "Point", "coordinates": [ -70.233, 11.633 ] } },
{ "type": "Feature", "properties": { "PORT_NAME": "WAKE ISLAND", "COUNTRY": "QW", "MAX_VESSEL": "L" }, "geometry": { "type": "Point", "coordinates": [ 166.617, 19.283 ] } },
{ "type": "Feature", "properties": { "PORT_NAME": "NAURU", "COUNTRY": "NR", "MAX_VESSEL": "M" }, "geometry": { "type": "Point", "coordinates": [ 166.917, -0.533 ] } },
{ "type": "Feature", "properties": { "PORT_NAME": "APRA HARBOR", "COUNTRY": "GU", "MAX_VESSEL": "M" }, "geometry": { "type": "Point", "coordinates": [ 144.617, 13.45 ] } },
{ "type": "Feature", "properties": { "PORT_NAME": "SUDAK", "COUNTRY": "UA", "MAX_VESSEL": "M" }, "geometry": { "type": "Point", "coordinates": [ 34.983, 44.85 ] } },
{ "type": "Feature", "properties": { "PORT_NAME": "MURMANSK", "COUNTRY": "RU", "MAX_VESSEL": "M" }, "geometry": { "type": "Point", "coordinates": [ 33.05, 68.983 ] } },
{ "type": "Feature", "properties": { "PORT_NAME": "MOJI KO", "COUNTRY": "JP", "MAX_VESSEL": "M" }, "geometry": { "type": "Point", "coordinates": [ 130.967, 33.95 ] } },
{ "type": "Feature", "properties": { "PORT_NAME": "RAS BADRAN OIL TERMINAL", "COUNTRY": "EG", "MAX_VESSEL": "M" }, "geometry": { "type": "Point", "coordinates": [ 33.167, 28.95 ] } },
{ "type": "Feature", "properties": { "PORT_NAME": "BANDAR-E PARS TERMINAL", "COUNTRY": "IR", "MAX_VESSEL": "M" }, "geometry": { "type": "Point", "coordinates": [ 52.533, 27.533 ] } },
{ "type": "Feature", "properties": { "PORT_NAME": "BARKAN OIL-LOADING TERMINAL", "COUNTRY": "IR", "MAX_VESSEL": "M" }, "geometry": { "type": "Point", "coordinates": [ 50.167, 29.733 ] } },
{ "type": "Feature", "properties": { "PORT_NAME": "JU AYMAH LPG TERMINAL", "COUNTRY": "SA", "MAX_VESSEL": "M" }, "geometry": { "type": "Point", "coordinates": [ 50.05, 26.867 ] } },
{ "type": "Feature", "properties": { "PORT_NAME": "HULAYLAH OIL TERMINAL", "COUNTRY": "AE", "MAX_VESSEL": "M" }, "geometry": { "type": "Point", "coordinates": [ 55.933, 25.983 ] } },
{ "type": "Feature", "properties": { "PORT_NAME": "MAILIAO", "COUNTRY": "TW", "MAX_VESSEL": null }, "geometry": { "type": "Point", "coordinates": [ 120.167, 23.783 ] } },
{ "type": "Feature", "properties": { "PORT_NAME": "QUANZHOU", "COUNTRY": "CN", "MAX_VESSEL": null }, "geometry": { "type": "Point", "coordinates": [ 118.6, 24.883 ] } },
{ "type": "Feature", "properties": { "PORT_NAME": "EUROPOORT", "COUNTRY": "NL", "MAX_VESSEL": "L" }, "geometry": { "type": "Point", "coordinates": [ 4.117, 51.95 ] } },
{ "type": "Feature", "properties": { "PORT_NAME": "MAASSLUIS", "COUNTRY": "NL", "MAX_VESSEL": "M" }, "geometry": { "type": "Point", "coordinates": [ 4.25, 51.917 ] } },
{ "type": "Feature", "properties": { "PORT_NAME": "MJIMWEMA TERMINAL", "COUNTRY": "TZ", "MAX_VESSEL": "M" }, "geometry": { "type": "Point", "coordinates": [ 39.367, -6.817 ] } },
{ "type": "Feature", "properties": { "PORT_NAME": "UDANG OILFIELD", "COUNTRY": "ID", "MAX_VESSEL": "M" }, "geometry": { "type": "Point", "coordinates": [ 106.483, 4.033 ] } },
{ "type": "Feature", "properties": { "PORT_NAME": "KUMUL", "COUNTRY": "PG", "MAX_VESSEL": "L" }, "geometry": { "type": "Point", "coordinates": [ 144.567, -8.1 ] } },
{ "type": "Feature", "properties": { "PORT_NAME": "NOVOROSSIYSK", "COUNTRY": "RU", "MAX_VESSEL": "M" }, "geometry": { "type": "Point", "coordinates": [ 37.783, 44.717 ] } },
{ "type": "Feature", "properties": { "PORT_NAME": "KALI LIMENES", "COUNTRY": "GR", "MAX_VESSEL": "L" }, "geometry": { "type": "Point", "coordinates": [ 24.833, 34.933 ] } },
{ "type": "Feature", "properties": { "PORT_NAME": "OITA KO", "COUNTRY": "JP", "MAX_VESSEL": "L" }, "geometry": { "type": "Point", "coordinates": [ 131.667, 33.25 ] } },
{ "type": "Feature", "properties": { "PORT_NAME": "KIIRE", "COUNTRY": "JP", "MAX_VESSEL": "L" }, "geometry": { "type": "Point", "coordinates": [ 130.55, 31.383 ] } },
{ "type": "Feature", "properties": { "PORT_NAME": "SASEBO", "COUNTRY": "JP", "MAX_VESSEL": "L" }, "geometry": { "type": "Point", "coordinates": [ 129.717, 33.167 ] } },
{ "type": "Feature", "properties": { "PORT_NAME": "IMARI", "COUNTRY": "JP", "MAX_VESSEL": "L" }, "geometry": { "type": "Point", "coordinates": [ 129.883, 33.283 ] } },
{ "type": "Feature", "properties": { "PORT_NAME": "COLOMBO", "COUNTRY": "LK", "MAX_VESSEL": "M" }, "geometry": { "type": "Point", "coordinates": [ 79.85, 6.95 ] } },
{ "type": "Feature", "properties": { "PORT_NAME": "BANDAR-E MAHSHAHR", "COUNTRY": "IR", "MAX_VESSEL": "M" }, "geometry": { "type": "Point", "coordinates": [ 49.183, 30.467 ] } },
{ "type": "Feature", "properties": { "PORT_NAME": "KHARG ISLAND OIL TERMINAL", "COUNTRY": "IR", "MAX_VESSEL": "M" }, "geometry": { "type": "Point", "coordinates": [ 50.333, 29.233 ] } },
{ "type": "Feature", "properties": { "PORT_NAME": "SIRUS OIL TERMINAL", "COUNTRY": "IR", "MAX_VESSEL": "L" }, "geometry": { "type": "Point", "coordinates": [ 49.483, 29.017 ] } },
{ "type": "Feature", "properties": { "PORT_NAME": "JAZIREH-YE LAVAN OIL TERMINAL", "COUNTRY": "IR", "MAX_VESSEL": "M" }, "geometry": { "type": "Point", "coordinates": [ 53.333, 26.783 ] } },
{ "type": "Feature", "properties": { "PORT_NAME": "JAZIREH-YE SIRRI", "COUNTRY": "IR", "MAX_VESSEL": "M" }, "geometry": { "type": "Point", "coordinates": [ 54.55, 25.9 ] } },
{ "type": "Feature", "properties": { "PORT_NAME": "KARACHI", "COUNTRY": "PK", "MAX_VESSEL": "L" }, "geometry": { "type": "Point", "coordinates": [ 66.983, 24.783 ] } },
{ "type": "Feature", "properties": { "PORT_NAME": "ENSTED", "COUNTRY": "DK", "MAX_VESSEL": "M" }, "geometry": { "type": "Point", "coordinates": [ 9.433, 55.017 ] } },
{ "type": "Feature", "properties": { "PORT_NAME": "PUERTO SANDINO", "COUNTRY": "NI", "MAX_VESSEL": "L" }, "geometry": { "type": "Point", "coordinates": [ -86.767, 12.183 ] } },
{ "type": "Feature", "properties": { "PORT_NAME": "TOAMASINA", "COUNTRY": "MG", "MAX_VESSEL": "M" }, "geometry": { "type": "Point", "coordinates": [ 49.417, -18.167 ] } },
{ "type": "Feature", "properties": { "PORT_NAME": "WHANGAREI", "COUNTRY": "NZ", "MAX_VESSEL": "M" }, "geometry": { "type": "Point", "coordinates": [ 174.433, -35.8 ] } },
{ "type": "Feature", "properties": { "PORT_NAME": "NEW PLYMOUTH", "COUNTRY": "NZ", "MAX_VESSEL": "L" }, "geometry": { "type": "Point", "coordinates": [ 174.033, -39.067 ] } },
{ "type": "Feature", "properties": { "PORT_NAME": "CONSTANTA", "COUNTRY": "RO", "MAX_VESSEL": "M" }, "geometry": { "type": "Point", "coordinates": [ 28.65, 44.167 ] } },
{ "type": "Feature", "properties": { "PORT_NAME": "MUMBAI (BOMBAY)", "COUNTRY": "IN", "MAX_VESSEL": "L" }, "geometry": { "type": "Point", "coordinates": [ 72.867, 18.967 ] } },
{ "type": "Feature", "properties": { "PORT_NAME": "JAWAHARLAL NEHRU PORT (NHAVA SHIVA)", "COUNTRY": "IN", "MAX_VESSEL": "L" }, "geometry": { "type": "Point", "coordinates": [ 72.95, 18.95 ] } },
{ "type": "Feature", "properties": { "PORT_NAME": "KOCHI (COCHIN)", "COUNTRY": "IN", "MAX_VESSEL": "L" }, "geometry": { "type": "Point", "coordinates": [ 76.233, 9.967 ] } },
{ "type": "Feature", "properties": { "PORT_NAME": "BRISTOL", "COUNTRY": "GB", "MAX_VESSEL": "M" }, "geometry": { "type": "Point", "coordinates": [ -2.633, 51.467 ] } },
{ "type": "Feature", "properties": { "PORT_NAME": "CORINTO", "COUNTRY": "NI", "MAX_VESSEL": "L" }, "geometry": { "type": "Point", "coordinates": [ -87.167, 12.483 ] } },
{ "type": "Feature", "properties": { "PORT_NAME": "ACAJUTLA", "COUNTRY": "SV", "MAX_VESSEL": "L" }, "geometry": { "type": "Point", "coordinates": [ -89.833, 13.583 ] } },
{ "type": "Feature", "properties": { "PORT_NAME": "PUERTO QUETZAL", "COUNTRY": "GT", "MAX_VESSEL": "L" }, "geometry": { "type": "Point", "coordinates": [ -90.8, 13.917 ] } },
{ "type": "Feature", "properties": { "PORT_NAME": "BAHIA SAN VICENTE", "COUNTRY": "CL", "MAX_VESSEL": "L" }, "geometry": { "type": "Point", "coordinates": [ -73.167, -36.733 ] } },
{ "type": "Feature", "properties": { "PORT_NAME": "BAHIA DE VALPARAISO", "COUNTRY": "CL", "MAX_VESSEL": "L" }, "geometry": { "type": "Point", "coordinates": [ -71.617, -33.033 ] } },
{ "type": "Feature", "properties": { "PORT_NAME": "BAHIA QUINTERO (VENTANAS)", "COUNTRY": "CL", "MAX_VESSEL": "L" }, "geometry": { "type": "Point", "coordinates": [ -71.533, -32.767 ] } },
{ "type": "Feature", "properties": { "PORT_NAME": "BAHIA HERRADURA GUAYACAN", "COUNTRY": "CL", "MAX_VESSEL": "L" }, "geometry": { "type": "Point", "coordinates": [ -71.367, -29.967 ] } },
{ "type": "Feature", "properties": { "PORT_NAME": "HUASCO", "COUNTRY": "CL", "MAX_VESSEL": "L" }, "geometry": { "type": "Point", "coordinates": [ -71.25, -28.467 ] } },
{ "type": "Feature", "properties": { "PORT_NAME": "PUERTO CHANARAL", "COUNTRY": "CL", "MAX_VESSEL": "L" }, "geometry": { "type": "Point", "coordinates": [ -70.65, -26.35 ] } },
{ "type": "Feature", "properties": { "PORT_NAME": "TALTAL", "COUNTRY": "CL", "MAX_VESSEL": "L" }, "geometry": { "type": "Point", "coordinates": [ -70.483, -25.4 ] } },
{ "type": "Feature", "properties": { "PORT_NAME": "ANTOFAGASTA", "COUNTRY": "CL", "MAX_VESSEL": "L" }, "geometry": { "type": "Point", "coordinates": [ -70.417, -23.65 ] } },
{ "type": "Feature", "properties": { "PORT_NAME": "MEJILLONES", "COUNTRY": "CL", "MAX_VESSEL": "L" }, "geometry": { "type": "Point", "coordinates": [ -70.467, -23.1 ] } },
{ "type": "Feature", "properties": { "PORT_NAME": "TOCOPILLA", "COUNTRY": "CL", "MAX_VESSEL": "L" }, "geometry": { "type": "Point", "coordinates": [ -70.233, -22.083 ] } },
{ "type": "Feature", "properties": { "PORT_NAME": "RADA DE ARICA", "COUNTRY": "CL", "MAX_VESSEL": "L" }, "geometry": { "type": "Point", "coordinates": [ -70.333, -18.467 ] } },
{ "type": "Feature", "properties": { "PORT_NAME": "PUERTO ILO", "COUNTRY": "PE", "MAX_VESSEL": "L" }, "geometry": { "type": "Point", "coordinates": [ -71.367, -17.633 ] } },
{ "type": "Feature", "properties": { "PORT_NAME": "BAHIA DE MATARANI", "COUNTRY": "PE", "MAX_VESSEL": "L" }, "geometry": { "type": "Point", "coordinates": [ -72.117, -17.0 ] } },
{ "type": "Feature", "properties": { "PORT_NAME": "BAHIA SAN NICOLAS", "COUNTRY": "PE", "MAX_VESSEL": "L" }, "geometry": { "type": "Point", "coordinates": [ -75.233, -15.25 ] } },
{ "type": "Feature", "properties": { "PORT_NAME": "AMUAY (BAHIA DE AMUAY)", "COUNTRY": "VE", "MAX_VESSEL": "L" }, "geometry": { "type": "Point", "coordinates": [ -70.233, 11.75 ] } },
{ "type": "Feature", "properties": { "PORT_NAME": "EL PALITO", "COUNTRY": "VE", "MAX_VESSEL": "L" }, "geometry": { "type": "Point", "coordinates": [ -68.117, 10.483 ] } },
{ "type": "Feature", "properties": { "PORT_NAME": "BAHIA DE PERTIGALETE", "COUNTRY": "VE", "MAX_VESSEL": "M" }, "geometry": { "type": "Point", "coordinates": [ -64.567, 10.233 ] } },
{ "type": "Feature", "properties": { "PORT_NAME": "FORT DE FRANCE", "COUNTRY": "MQ", "MAX_VESSEL": "L" }, "geometry": { "type": "Point", "coordinates": [ -61.067, 14.6 ] } },
{ "type": "Feature", "properties": { "PORT_NAME": "THESSALONIKI", "COUNTRY": "GR", "MAX_VESSEL": "L" }, "geometry": { "type": "Point", "coordinates": [ 22.933, 40.633 ] } },
{ "type": "Feature", "properties": { "PORT_NAME": "PORT LYTTELTON", "COUNTRY": "NZ", "MAX_VESSEL": "M" }, "geometry": { "type": "Point", "coordinates": [ 172.717, -43.6 ] } },
{ "type": "Feature", "properties": { "PORT_NAME": "FOYNES", "COUNTRY": "IE", "MAX_VESSEL": "L" }, "geometry": { "type": "Point", "coordinates": [ -9.117, 52.617 ] } },
{ "type": "Feature", "properties": { "PORT_NAME": "TARBERT", "COUNTRY": "IE", "MAX_VESSEL": "L" }, "geometry": { "type": "Point", "coordinates": [ -9.367, 52.583 ] } },
{ "type": "Feature", "properties": { "PORT_NAME": "BANTRY", "COUNTRY": "IE", "MAX_VESSEL": "L" }, "geometry": { "type": "Point", "coordinates": [ -9.45, 51.683 ] } },
{ "type": "Feature", "properties": { "PORT_NAME": "KIN WAN", "COUNTRY": "JP", "MAX_VESSEL": "L" }, "geometry": { "type": "Point", "coordinates": [ 127.9, 26.417 ] } },
{ "type": "Feature", "properties": { "PORT_NAME": "NANAO KO", "COUNTRY": "JP", "MAX_VESSEL": "L" }, "geometry": { "type": "Point", "coordinates": [ 136.983, 37.05 ] } },
{ "type": "Feature", "properties": { "PORT_NAME": "ZHAPU", "COUNTRY": "CN", "MAX_VESSEL": "M" }, "geometry": { "type": "Point", "coordinates": [ 121.083, 30.583 ] } },
{ "type": "Feature", "properties": { "PORT_NAME": "KEMAMAN HARBOR", "COUNTRY": "MY", "MAX_VESSEL": "L" }, "geometry": { "type": "Point", "coordinates": [ 103.467, 4.25 ] } },
{ "type": "Feature", "properties": { "PORT_NAME": "TANJUNG PELEPAS", "COUNTRY": "MY", "MAX_VESSEL": "L" }, "geometry": { "type": "Point", "coordinates": [ 103.55, 1.35 ] } },
{ "type": "Feature", "properties": { "PORT_NAME": "BONGKOT TERMINAL", "COUNTRY": "TH", "MAX_VESSEL": "L" }, "geometry": { "type": "Point", "coordinates": [ 102.333, 8.05 ] } },
{ "type": "Feature", "properties": { "PORT_NAME": "VUNG TAU", "COUNTRY": "VN", "MAX_VESSEL": "L" }, "geometry": { "type": "Point", "coordinates": [ 107.067, 10.35 ] } },
{ "type": "Feature", "properties": { "PORT_NAME": "TANTAWAN MARINE TERMINAL", "COUNTRY": "TH", "MAX_VESSEL": "M" }, "geometry": { "type": "Point", "coordinates": [ 101.417, 10.083 ] } },
{ "type": "Feature", "properties": { "PORT_NAME": "LAEM CHABANG", "COUNTRY": "TH", "MAX_VESSEL": "L" }, "geometry": { "type": "Point", "coordinates": [ 100.883, 13.083 ] } },
{ "type": "Feature", "properties": { "PORT_NAME": "PITEA", "COUNTRY": "SE", "MAX_VESSEL": "M" }, "geometry": { "type": "Point", "coordinates": [ 21.483, 65.317 ] } },
{ "type": "Feature", "properties": { "PORT_NAME": "ERAWAN TERMINAL", "COUNTRY": "TH", "MAX_VESSEL": "L" }, "geometry": { "type": "Point", "coordinates": [ 101.35, 9.1 ] } },
{ "type": "Feature", "properties": { "PORT_NAME": "BENCHAMAS TERMINAL", "COUNTRY": "TH", "MAX_VESSEL": "L" }, "geometry": { "type": "Point", "coordinates": [ 101.25, 10.517 ] } },
{ "type": "Feature", "properties": { "PORT_NAME": "PORT BONYTHON", "COUNTRY": "AU", "MAX_VESSEL": "M" }, "geometry": { "type": "Point", "coordinates": [ 137.767, -33.017 ] } },
{ "type": "Feature", "properties": { "PORT_NAME": "ESPERANCE", "COUNTRY": "AU", "MAX_VESSEL": "M" }, "geometry": { "type": "Point", "coordinates": [ 121.9, -33.867 ] } },
{ "type": "Feature", "properties": { "PORT_NAME": "MEGARA OIL TERMINAL", "COUNTRY": "GR", "MAX_VESSEL": "L" }, "geometry": { "type": "Point", "coordinates": [ 23.4, 37.967 ] } },
{ "type": "Feature", "properties": { "PORT_NAME": "ELEVSIS", "COUNTRY": "GR", "MAX_VESSEL": "L" }, "geometry": { "type": "Point", "coordinates": [ 23.55, 38.033 ] } },
{ "type": "Feature", "properties": { "PORT_NAME": "PAKHI OIL TERMINAL", "COUNTRY": "GR", "MAX_VESSEL": "M" }, "geometry": { "type": "Point", "coordinates": [ 23.383, 37.967 ] } },
{ "type": "Feature", "properties": { "PORT_NAME": "NIIGATA KO", "COUNTRY": "JP", "MAX_VESSEL": "L" }, "geometry": { "type": "Point", "coordinates": [ 139.05, 37.917 ] } },
{ "type": "Feature", "properties": { "PORT_NAME": "AKITA-FUNAKAWA KO", "COUNTRY": "JP", "MAX_VESSEL": "L" }, "geometry": { "type": "Point", "coordinates": [ 140.0, 39.833 ] } },
{ "type": "Feature", "properties": { "PORT_NAME": "KIKUMA KO", "COUNTRY": "JP", "MAX_VESSEL": "L" }, "geometry": { "type": "Point", "coordinates": [ 132.833, 34.033 ] } },
{ "type": "Feature", "properties": { "PORT_NAME": "MUTUREZIMA KO", "COUNTRY": "JP", "MAX_VESSEL": "L" }, "geometry": { "type": "Point", "coordinates": [ 130.867, 33.967 ] } },
{ "type": "Feature", "properties": { "PORT_NAME": "MALE", "COUNTRY": "MV", "MAX_VESSEL": "M" }, "geometry": { "type": "Point", "coordinates": [ 73.5, 4.167 ] } },
{ "type": "Feature", "properties": { "PORT_NAME": "MINA AL FAHL", "COUNTRY": "OM", "MAX_VESSEL": "M" }, "geometry": { "type": "Point", "coordinates": [ 58.517, 23.633 ] } },
{ "type": "Feature", "properties": { "PORT_NAME": "FUJAYRAH HARBOR", "COUNTRY": "AE", "MAX_VESSEL": "L" }, "geometry": { "type": "Point", "coordinates": [ 56.333, 25.167 ] } },
{ "type": "Feature", "properties": { "PORT_NAME": "FATEH OIL TERMINAL", "COUNTRY": "AE", "MAX_VESSEL": "L" }, "geometry": { "type": "Point", "coordinates": [ 54.417, 25.583 ] } },
{ "type": "Feature", "properties": { "PORT_NAME": "MUBARRAZ OIL TERMINAL", "COUNTRY": "AE", "MAX_VESSEL": "L" }, "geometry": { "type": "Point", "coordinates": [ 53.517, 24.433 ] } },
{ "type": "Feature", "properties": { "PORT_NAME": "AL HAMRIYAH LPG TERMINAL", "COUNTRY": "AE", "MAX_VESSEL": "L" }, "geometry": { "type": "Point", "coordinates": [ 55.483, 25.467 ] } },
{ "type": "Feature", "properties": { "PORT_NAME": "MINA JABAL ALI", "COUNTRY": "AE", "MAX_VESSEL": "L" }, "geometry": { "type": "Point", "coordinates": [ 55.05, 25.017 ] } },
{ "type": "Feature", "properties": { "PORT_NAME": "JAZIRAT DAS", "COUNTRY": "AE", "MAX_VESSEL": "M" }, "geometry": { "type": "Point", "coordinates": [ 52.867, 25.15 ] } },
{ "type": "Feature", "properties": { "PORT_NAME": "ABU ZABY", "COUNTRY": "AE", "MAX_VESSEL": "L" }, "geometry": { "type": "Point", "coordinates": [ 54.333, 24.5 ] } },
{ "type": "Feature", "properties": { "PORT_NAME": "JABAL AZ ZANNAH\/RUWAYS", "COUNTRY": "AE", "MAX_VESSEL": "L" }, "geometry": { "type": "Point", "coordinates": [ 52.7, 24.2 ] } },
{ "type": "Feature", "properties": { "PORT_NAME": "UMM SAID", "COUNTRY": "QA", "MAX_VESSEL": "M" }, "geometry": { "type": "Point", "coordinates": [ 51.567, 24.917 ] } },
{ "type": "Feature", "properties": { "PORT_NAME": "TSURUGA KO", "COUNTRY": "JP", "MAX_VESSEL": "L" }, "geometry": { "type": "Point", "coordinates": [ 136.067, 35.65 ] } },
{ "type": "Feature", "properties": { "PORT_NAME": "VADINAR TERMINAL", "COUNTRY": "IN", "MAX_VESSEL": "L" }, "geometry": { "type": "Point", "coordinates": [ 69.7, 22.517 ] } },
{ "type": "Feature", "properties": { "PORT_NAME": "NAKAGUSUKU", "COUNTRY": "JP", "MAX_VESSEL": "L" }, "geometry": { "type": "Point", "coordinates": [ 127.917, 26.267 ] } },
{ "type": "Feature", "properties": { "PORT_NAME": "AOKATA", "COUNTRY": "JP", "MAX_VESSEL": null }, "geometry": { "type": "Point", "coordinates": [ 129.067, 32.983 ] } },
{ "type": "Feature", "properties": { "PORT_NAME": "FUKUI", "COUNTRY": "JP", "MAX_VESSEL": null }, "geometry": { "type": "Point", "coordinates": [ 136.2, 36.067 ] } },
{ "type": "Feature", "properties": { "PORT_NAME": "NISHIHARA", "COUNTRY": "JP", "MAX_VESSEL": "L" }, "geometry": { "type": "Point", "coordinates": [ 127.8, 26.217 ] } },
{ "type": "Feature", "properties": { "PORT_NAME": "CHARCO AZUL", "COUNTRY": "PA", "MAX_VESSEL": "L" }, "geometry": { "type": "Point", "coordinates": [ -82.867, 8.217 ] } },
{ "type": "Feature", "properties": { "PORT_NAME": "HAKODATE KO", "COUNTRY": "JP", "MAX_VESSEL": "L" }, "geometry": { "type": "Point", "coordinates": [ 140.717, 41.783 ] } },
{ "type": "Feature", "properties": { "PORT_NAME": "SENDAI-SHIOGAMA", "COUNTRY": "JP", "MAX_VESSEL": "L" }, "geometry": { "type": "Point", "coordinates": [ 141.033, 38.317 ] } },
{ "type": "Feature", "properties": { "PORT_NAME": "ONAHAMA KO", "COUNTRY": "JP", "MAX_VESSEL": "L" }, "geometry": { "type": "Point", "coordinates": [ 140.9, 36.933 ] } },
{ "type": "Feature", "properties": { "PORT_NAME": "KASHIMA KO", "COUNTRY": "JP", "MAX_VESSEL": "L" }, "geometry": { "type": "Point", "coordinates": [ 140.7, 35.933 ] } },
{ "type": "Feature", "properties": { "PORT_NAME": "CHIBA KO", "COUNTRY": "JP", "MAX_VESSEL": "L" }, "geometry": { "type": "Point", "coordinates": [ 140.067, 35.583 ] } },
{ "type": "Feature", "properties": { "PORT_NAME": "KAWASAKI KO", "COUNTRY": "JP", "MAX_VESSEL": "L" }, "geometry": { "type": "Point", "coordinates": [ 139.767, 35.5 ] } },
{ "type": "Feature", "properties": { "PORT_NAME": "YOKOHAMA KO", "COUNTRY": "JP", "MAX_VESSEL": "L" }, "geometry": { "type": "Point", "coordinates": [ 139.583, 35.45 ] } },
{ "type": "Feature", "properties": { "PORT_NAME": "RICHARDS BAY", "COUNTRY": "ZA", "MAX_VESSEL": "M" }, "geometry": { "type": "Point", "coordinates": [ 32.083, -28.817 ] } },
{ "type": "Feature", "properties": { "PORT_NAME": "PORTO DI CORSINI", "COUNTRY": "IT", "MAX_VESSEL": "M" }, "geometry": { "type": "Point", "coordinates": [ 12.283, 44.5 ] } },
{ "type": "Feature", "properties": { "PORT_NAME": "PORTO DI MALAMOCCO", "COUNTRY": "IT", "MAX_VESSEL": "M" }, "geometry": { "type": "Point", "coordinates": [ 12.317, 45.333 ] } },
{ "type": "Feature", "properties": { "PORT_NAME": "PORTO DI LIDO-VENEZIA", "COUNTRY": "IT", "MAX_VESSEL": "L" }, "geometry": { "type": "Point", "coordinates": [ 12.433, 45.417 ] } },
{ "type": "Feature", "properties": { "PORT_NAME": "TRIESTE", "COUNTRY": "IT", "MAX_VESSEL": "L" }, "geometry": { "type": "Point", "coordinates": [ 13.767, 45.65 ] } },
{ "type": "Feature", "properties": { "PORT_NAME": "OMISALJ", "COUNTRY": "HR", "MAX_VESSEL": "L" }, "geometry": { "type": "Point", "coordinates": [ 14.55, 45.217 ] } },
{ "type": "Feature", "properties": { "PORT_NAME": "GOVE", "COUNTRY": "AU", "MAX_VESSEL": "L" }, "geometry": { "type": "Point", "coordinates": [ 136.7, -12.2 ] } },
{ "type": "Feature", "properties": { "PORT_NAME": "HOBART", "COUNTRY": "AU", "MAX_VESSEL": "L" }, "geometry": { "type": "Point", "coordinates": [ 147.333, -42.883 ] } },
{ "type": "Feature", "properties": { "PORT_NAME": "PORT LATTA", "COUNTRY": "AU", "MAX_VESSEL": "M" }, "geometry": { "type": "Point", "coordinates": [ 145.383, -40.833 ] } },
{ "type": "Feature", "properties": { "PORT_NAME": "JAZIRAT HALUL", "COUNTRY": "QA", "MAX_VESSEL": "L" }, "geometry": { "type": "Point", "coordinates": [ 52.417, 25.683 ] } },
{ "type": "Feature", "properties": { "PORT_NAME": "SITRAH", "COUNTRY": "BH", "MAX_VESSEL": "M" }, "geometry": { "type": "Point", "coordinates": [ 50.667, 26.167 ] } },
{ "type": "Feature", "properties": { "PORT_NAME": "AL JUBAYL", "COUNTRY": "SA", "MAX_VESSEL": "M" }, "geometry": { "type": "Point", "coordinates": [ 49.667, 27.083 ] } },
{ "type": "Feature", "properties": { "PORT_NAME": "RAS  TANNURAH", "COUNTRY": "SA", "MAX_VESSEL": "L" }, "geometry": { "type": "Point", "coordinates": [ 50.167, 26.633 ] } },
{ "type": "Feature", "properties": { "PORT_NAME": "JU AYMAH OIL TERMINAL", "COUNTRY": "SA", "MAX_VESSEL": "L" }, "geometry": { "type": "Point", "coordinates": [ 50.033, 26.933 ] } },
{ "type": "Feature", "properties": { "PORT_NAME": "MINA AZ ZAWR", "COUNTRY": "KW", "MAX_VESSEL": "M" }, "geometry": { "type": "Point", "coordinates": [ 48.4, 28.733 ] } },
{ "type": "Feature", "properties": { "PORT_NAME": "MINA ASH SHUAYBAH", "COUNTRY": "KW", "MAX_VESSEL": "M" }, "geometry": { "type": "Point", "coordinates": [ 48.167, 29.033 ] } },
{ "type": "Feature", "properties": { "PORT_NAME": "MINA ABD ALLAH", "COUNTRY": "KW", "MAX_VESSEL": "M" }, "geometry": { "type": "Point", "coordinates": [ 48.167, 29.017 ] } },
{ "type": "Feature", "properties": { "PORT_NAME": "MINA AL AHMADI", "COUNTRY": "KW", "MAX_VESSEL": "M" }, "geometry": { "type": "Point", "coordinates": [ 48.167, 29.067 ] } },
{ "type": "Feature", "properties": { "PORT_NAME": "KHAWR AL AMAYA", "COUNTRY": "IQ", "MAX_VESSEL": "M" }, "geometry": { "type": "Point", "coordinates": [ 48.8, 29.783 ] } },
{ "type": "Feature", "properties": { "PORT_NAME": "AL-BASRA OIL TERMINAL", "COUNTRY": "IQ", "MAX_VESSEL": "L" }, "geometry": { "type": "Point", "coordinates": [ 48.817, 29.683 ] } },
{ "type": "Feature", "properties": { "PORT_NAME": "ADEN", "COUNTRY": "YE", "MAX_VESSEL": "M" }, "geometry": { "type": "Point", "coordinates": [ 44.95, 12.783 ] } },
{ "type": "Feature", "properties": { "PORT_NAME": "AL MUKALLA", "COUNTRY": "YE", "MAX_VESSEL": "L" }, "geometry": { "type": "Point", "coordinates": [ 49.117, 14.517 ] } },
{ "type": "Feature", "properties": { "PORT_NAME": "LIVERPOOL", "COUNTRY": "GB", "MAX_VESSEL": "L" }, "geometry": { "type": "Point", "coordinates": [ -3.0, 53.417 ] } },
{ "type": "Feature", "properties": { "PORT_NAME": "STIGSNAESVAERKET", "COUNTRY": "DK", "MAX_VESSEL": "M" }, "geometry": { "type": "Point", "coordinates": [ 11.25, 55.2 ] } },
{ "type": "Feature", "properties": { "PORT_NAME": "PRIMORSK", "COUNTRY": "RU", "MAX_VESSEL": "M" }, "geometry": { "type": "Point", "coordinates": [ 28.633, 60.367 ] } },
{ "type": "Feature", "properties": { "PORT_NAME": "PUERTO SUPE", "COUNTRY": "PE", "MAX_VESSEL": "L" }, "geometry": { "type": "Point", "coordinates": [ -77.75, -10.8 ] } },
{ "type": "Feature", "properties": { "PORT_NAME": "SALDANHA BAY", "COUNTRY": "ZA", "MAX_VESSEL": "L" }, "geometry": { "type": "Point", "coordinates": [ 17.967, -33.033 ] } },
{ "type": "Feature", "properties": { "PORT_NAME": "CAPE TOWN", "COUNTRY": "ZA", "MAX_VESSEL": "L" }, "geometry": { "type": "Point", "coordinates": [ 18.417, -33.917 ] } },
{ "type": "Feature", "properties": { "PORT_NAME": "ANTAN OIL TERMINAL", "COUNTRY": "NG", "MAX_VESSEL": "L" }, "geometry": { "type": "Point", "coordinates": [ 8.333, 4.217 ] } },
{ "type": "Feature", "properties": { "PORT_NAME": "SYDNEY", "COUNTRY": "AU", "MAX_VESSEL": "L" }, "geometry": { "type": "Point", "coordinates": [ 151.2, -33.867 ] } },
{ "type": "Feature", "properties": { "PORT_NAME": "WESTERN PORT", "COUNTRY": "AU", "MAX_VESSEL": "L" }, "geometry": { "type": "Point", "coordinates": [ 145.233, -38.35 ] } },
{ "type": "Feature", "properties": { "PORT_NAME": "PORT MORESBY", "COUNTRY": "PG", "MAX_VESSEL": "M" }, "geometry": { "type": "Point", "coordinates": [ 147.133, -9.467 ] } },
{ "type": "Feature", "properties": { "PORT_NAME": "LAE", "COUNTRY": "PG", "MAX_VESSEL": "M" }, "geometry": { "type": "Point", "coordinates": [ 147.0, -6.733 ] } },
{ "type": "Feature", "properties": { "PORT_NAME": "MILAZZO", "COUNTRY": "IT", "MAX_VESSEL": "M" }, "geometry": { "type": "Point", "coordinates": [ 15.25, 38.217 ] } },
{ "type": "Feature", "properties": { "PORT_NAME": "PORTO DI PALERMO", "COUNTRY": "IT", "MAX_VESSEL": "L" }, "geometry": { "type": "Point", "coordinates": [ 13.367, 38.133 ] } },
{ "type": "Feature", "properties": { "PORT_NAME": "FINNART OIL TERMINAL", "COUNTRY": "GB", "MAX_VESSEL": "L" }, "geometry": { "type": "Point", "coordinates": [ -4.833, 56.117 ] } },
{ "type": "Feature", "properties": { "PORT_NAME": "UBE KO", "COUNTRY": "JP", "MAX_VESSEL": "L" }, "geometry": { "type": "Point", "coordinates": [ 131.233, 33.933 ] } },
{ "type": "Feature", "properties": { "PORT_NAME": "SHIMIZU KO", "COUNTRY": "JP", "MAX_VESSEL": "L" }, "geometry": { "type": "Point", "coordinates": [ 138.5, 35.017 ] } },
{ "type": "Feature", "properties": { "PORT_NAME": "KINUURA KO", "COUNTRY": "JP", "MAX_VESSEL": "L" }, "geometry": { "type": "Point", "coordinates": [ 136.95, 34.85 ] } },
{ "type": "Feature", "properties": { "PORT_NAME": "NAGOYA KO", "COUNTRY": "JP", "MAX_VESSEL": "L" }, "geometry": { "type": "Point", "coordinates": [ 136.867, 35.067 ] } },
{ "type": "Feature", "properties": { "PORT_NAME": "YOKKAICHI", "COUNTRY": "JP", "MAX_VESSEL": "L" }, "geometry": { "type": "Point", "coordinates": [ 136.633, 34.967 ] } },
{ "type": "Feature", "properties": { "PORT_NAME": "OWASE KO", "COUNTRY": "JP", "MAX_VESSEL": "L" }, "geometry": { "type": "Point", "coordinates": [ 136.217, 34.067 ] } },
{ "type": "Feature", "properties": { "PORT_NAME": "WAKAYAMA-SHIMOTSU KO", "COUNTRY": "JP", "MAX_VESSEL": "L" }, "geometry": { "type": "Point", "coordinates": [ 135.133, 34.2 ] } },
{ "type": "Feature", "properties": { "PORT_NAME": "SAKAI-SENBOKU", "COUNTRY": "JP", "MAX_VESSEL": "M" }, "geometry": { "type": "Point", "coordinates": [ 135.433, 34.55 ] } },
{ "type": "Feature", "properties": { "PORT_NAME": "KOBE", "COUNTRY": "JP", "MAX_VESSEL": "L" }, "geometry": { "type": "Point", "coordinates": [ 135.183, 34.65 ] } },
{ "type": "Feature", "properties": { "PORT_NAME": "PUERTO BAYOVAR", "COUNTRY": "PE", "MAX_VESSEL": "L" }, "geometry": { "type": "Point", "coordinates": [ -81.05, -5.833 ] } },
{ "type": "Feature", "properties": { "PORT_NAME": "CORONEL", "COUNTRY": "CL", "MAX_VESSEL": "L" }, "geometry": { "type": "Point", "coordinates": [ -73.167, -37.033 ] } },
{ "type": "Feature", "properties": { "PORT_NAME": "BAHIA BLANCA", "COUNTRY": "AR", "MAX_VESSEL": "L" }, "geometry": { "type": "Point", "coordinates": [ -62.267, -38.783 ] } },
{ "type": "Feature", "properties": { "PORT_NAME": "PUERTO INGENIERO WHITE", "COUNTRY": "AR", "MAX_VESSEL": "L" }, "geometry": { "type": "Point", "coordinates": [ -62.267, -38.8 ] } },
{ "type": "Feature", "properties": { "PORT_NAME": "PUERTO GALVAN", "COUNTRY": "AR", "MAX_VESSEL": "L" }, "geometry": { "type": "Point", "coordinates": [ -62.3, -38.783 ] } },
{ "type": "Feature", "properties": { "PORT_NAME": "PUERTO SARA", "COUNTRY": "CL", "MAX_VESSEL": "L" }, "geometry": { "type": "Point", "coordinates": [ -70.2, -52.633 ] } },
{ "type": "Feature", "properties": { "PORT_NAME": "HOUND POINT TERMINAL", "COUNTRY": "GB", "MAX_VESSEL": "L" }, "geometry": { "type": "Point", "coordinates": [ -3.367, 56.0 ] } },
{ "type": "Feature", "properties": { "PORT_NAME": "ZEEBRUGGE", "COUNTRY": "BE", "MAX_VESSEL": "L" }, "geometry": { "type": "Point", "coordinates": [ 3.2, 51.333 ] } },
{ "type": "Feature", "properties": { "PORT_NAME": "GELA", "COUNTRY": "IT", "MAX_VESSEL": "M" }, "geometry": { "type": "Point", "coordinates": [ 14.25, 37.067 ] } },
{ "type": "Feature", "properties": { "PORT_NAME": "AUGUSTA", "COUNTRY": "IT", "MAX_VESSEL": "M" }, "geometry": { "type": "Point", "coordinates": [ 15.233, 37.217 ] } },
{ "type": "Feature", "properties": { "PORT_NAME": "TARANTO", "COUNTRY": "IT", "MAX_VESSEL": "L" }, "geometry": { "type": "Point", "coordinates": [ 17.2, 40.467 ] } },
{ "type": "Feature", "properties": { "PORT_NAME": "BARI", "COUNTRY": "IT", "MAX_VESSEL": "M" }, "geometry": { "type": "Point", "coordinates": [ 16.867, 41.133 ] } },
{ "type": "Feature", "properties": { "PORT_NAME": "PORTO TORRES", "COUNTRY": "IT", "MAX_VESSEL": "M" }, "geometry": { "type": "Point", "coordinates": [ 8.4, 40.833 ] } },
{ "type": "Feature", "properties": { "PORT_NAME": "RADA DI VADO", "COUNTRY": "IT", "MAX_VESSEL": "M" }, "geometry": { "type": "Point", "coordinates": [ 8.433, 44.267 ] } },
{ "type": "Feature", "properties": { "PORT_NAME": "GENOVA", "COUNTRY": "IT", "MAX_VESSEL": "M" }, "geometry": { "type": "Point", "coordinates": [ 8.933, 44.4 ] } },
{ "type": "Feature", "properties": { "PORT_NAME": "BRISBANE", "COUNTRY": "AU", "MAX_VESSEL": "L" }, "geometry": { "type": "Point", "coordinates": [ 153.033, -27.467 ] } },
{ "type": "Feature", "properties": { "PORT_NAME": "HIMEJI", "COUNTRY": "JP", "MAX_VESSEL": "L" }, "geometry": { "type": "Point", "coordinates": [ 134.633, 34.75 ] } },
{ "type": "Feature", "properties": { "PORT_NAME": "KAKOGAWA", "COUNTRY": "JP", "MAX_VESSEL": "M" }, "geometry": { "type": "Point", "coordinates": [ 134.833, 34.7 ] } },
{ "type": "Feature", "properties": { "PORT_NAME": "MIZUSHIMA KO", "COUNTRY": "JP", "MAX_VESSEL": "L" }, "geometry": { "type": "Point", "coordinates": [ 133.75, 34.5 ] } },
{ "type": "Feature", "properties": { "PORT_NAME": "KURE", "COUNTRY": "JP", "MAX_VESSEL": "L" }, "geometry": { "type": "Point", "coordinates": [ 132.55, 34.233 ] } },
{ "type": "Feature", "properties": { "PORT_NAME": "IWAKUNI KO", "COUNTRY": "JP", "MAX_VESSEL": "L" }, "geometry": { "type": "Point", "coordinates": [ 132.25, 34.183 ] } },
{ "type": "Feature", "properties": { "PORT_NAME": "KUDAMATSU", "COUNTRY": "JP", "MAX_VESSEL": "M" }, "geometry": { "type": "Point", "coordinates": [ 131.867, 34.0 ] } },
{ "type": "Feature", "properties": { "PORT_NAME": "TOKUYAMA", "COUNTRY": "JP", "MAX_VESSEL": "L" }, "geometry": { "type": "Point", "coordinates": [ 131.817, 34.033 ] } },
{ "type": "Feature", "properties": { "PORT_NAME": "PORT EST", "COUNTRY": "RE", "MAX_VESSEL": "L" }, "geometry": { "type": "Point", "coordinates": [ 55.317, -20.933 ] } },
{ "type": "Feature", "properties": { "PORT_NAME": "DIEGO GARCIA", "COUNTRY": "IO", "MAX_VESSEL": null }, "geometry": { "type": "Point", "coordinates": [ 72.467, -7.35 ] } },
{ "type": "Feature", "properties": { "PORT_NAME": "ZEIT BAY TERMINAL", "COUNTRY": "EG", "MAX_VESSEL": "M" }, "geometry": { "type": "Point", "coordinates": [ 33.6, 27.833 ] } },
{ "type": "Feature", "properties": { "PORT_NAME": "FUSHIKI-TOYAMA", "COUNTRY": "JP", "MAX_VESSEL": "L" }, "geometry": { "type": "Point", "coordinates": [ 137.133, 36.767 ] } },
{ "type": "Feature", "properties": { "PORT_NAME": "GALEOTA POINT TERMINAL", "COUNTRY": "TT", "MAX_VESSEL": "L" }, "geometry": { "type": "Point", "coordinates": [ -60.983, 10.133 ] } },
{ "type": "Feature", "properties": { "PORT_NAME": "FUKUI KO", "COUNTRY": "JP", "MAX_VESSEL": "L" }, "geometry": { "type": "Point", "coordinates": [ 136.1, 36.183 ] } },
{ "type": "Feature", "properties": { "PORT_NAME": "POINTE A PIERRE", "COUNTRY": "TT", "MAX_VESSEL": "L" }, "geometry": { "type": "Point", "coordinates": [ -61.467, 10.317 ] } },
{ "type": "Feature", "properties": { "PORT_NAME": "HIGASHI-HARIMA", "COUNTRY": "JP", "MAX_VESSEL": "L" }, "geometry": { "type": "Point", "coordinates": [ 134.833, 34.7 ] } },
{ "type": "Feature", "properties": { "PORT_NAME": "SAKAIDE KO", "COUNTRY": "JP", "MAX_VESSEL": "L" }, "geometry": { "type": "Point", "coordinates": [ 133.85, 34.333 ] } },
{ "type": "Feature", "properties": { "PORT_NAME": "SINT NICOLAAS BAAI", "COUNTRY": "AW", "MAX_VESSEL": "L" }, "geometry": { "type": "Point", "coordinates": [ -69.917, 12.433 ] } },
{ "type": "Feature", "properties": { "PORT_NAME": "ST JOHN'S", "COUNTRY": "CA", "MAX_VESSEL": "L" }, "geometry": { "type": "Point", "coordinates": [ -52.7, 47.567 ] } },
{ "type": "Feature", "properties": { "PORT_NAME": "REYKJAVIK", "COUNTRY": "IS", "MAX_VESSEL": "L" }, "geometry": { "type": "Point", "coordinates": [ -21.933, 64.15 ] } },
{ "type": "Feature", "properties": { "PORT_NAME": "PYEONGTAEK HANG", "COUNTRY": "KR", "MAX_VESSEL": "L" }, "geometry": { "type": "Point", "coordinates": [ 126.8, 37.0 ] } },
{ "type": "Feature", "properties": { "PORT_NAME": "MALONG MARINE TERMINAL", "COUNTRY": "MY", "MAX_VESSEL": "L" }, "geometry": { "type": "Point", "coordinates": [ 104.817, 4.633 ] } },
{ "type": "Feature", "properties": { "PORT_NAME": "BLANGLANCANG", "COUNTRY": "ID", "MAX_VESSEL": "M" }, "geometry": { "type": "Point", "coordinates": [ 97.1, 5.233 ] } },
{ "type": "Feature", "properties": { "PORT_NAME": "POLENG OIL FIELD", "COUNTRY": "ID", "MAX_VESSEL": null }, "geometry": { "type": "Point", "coordinates": [ 112.917, -6.65 ] } },
{ "type": "Feature", "properties": { "PORT_NAME": "COMODORO RIVADAVIA", "COUNTRY": "AR", "MAX_VESSEL": "L" }, "geometry": { "type": "Point", "coordinates": [ -67.467, -45.867 ] } },
{ "type": "Feature", "properties": { "PORT_NAME": "PUERTO LA CRUZ", "COUNTRY": "VE", "MAX_VESSEL": "L" }, "geometry": { "type": "Point", "coordinates": [ -64.633, 10.25 ] } },
{ "type": "Feature", "properties": { "PORT_NAME": "JOSE TERMINAL", "COUNTRY": "VE", "MAX_VESSEL": "L" }, "geometry": { "type": "Point", "coordinates": [ -64.85, 10.1 ] } },
{ "type": "Feature", "properties": { "PORT_NAME": "CATIA LA MAR", "COUNTRY": "VE", "MAX_VESSEL": "M" }, "geometry": { "type": "Point", "coordinates": [ -67.017, 10.6 ] } },
{ "type": "Feature", "properties": { "PORT_NAME": "LAS PIEDRAS", "COUNTRY": "VE", "MAX_VESSEL": "M" }, "geometry": { "type": "Point", "coordinates": [ -70.217, 11.7 ] } },
{ "type": "Feature", "properties": { "PORT_NAME": "VITINO", "COUNTRY": "RU", "MAX_VESSEL": "L" }, "geometry": { "type": "Point", "coordinates": [ 32.317, 67.083 ] } },
{ "type": "Feature", "properties": { "PORT_NAME": "RAS AL KHAFJI", "COUNTRY": "SA", "MAX_VESSEL": "L" }, "geometry": { "type": "Point", "coordinates": [ 48.583, 28.433 ] } },
{ "type": "Feature", "properties": { "PORT_NAME": "GWANGYANG HANG", "COUNTRY": "KR", "MAX_VESSEL": "L" }, "geometry": { "type": "Point", "coordinates": [ 127.8, 34.85 ] } },
{ "type": "Feature", "properties": { "PORT_NAME": "SILLAMAE", "COUNTRY": "EE", "MAX_VESSEL": "L" }, "geometry": { "type": "Point", "coordinates": [ 27.05, 59.4 ] } },
{ "type": "Feature", "properties": { "PORT_NAME": "KARSTO", "COUNTRY": "NO", "MAX_VESSEL": "L" }, "geometry": { "type": "Point", "coordinates": [ 5.517, 59.267 ] } },
{ "type": "Feature", "properties": { "PORT_NAME": "SANDNES", "COUNTRY": "NO", "MAX_VESSEL": null }, "geometry": { "type": "Point", "coordinates": [ 5.75, 58.85 ] } },
{ "type": "Feature", "properties": { "PORT_NAME": "MANDAL", "COUNTRY": "NO", "MAX_VESSEL": "M" }, "geometry": { "type": "Point", "coordinates": [ 7.467, 58.017 ] } },
{ "type": "Feature", "properties": { "PORT_NAME": "M'BYA OIL TERMINAL", "COUNTRY": "GA", "MAX_VESSEL": "L" }, "geometry": { "type": "Point", "coordinates": [ 10.933, -3.883 ] } },
{ "type": "Feature", "properties": { "PORT_NAME": "DUTCH HARBOR", "COUNTRY": "US", "MAX_VESSEL": null }, "geometry": { "type": "Point", "coordinates": [ -166.533, 53.9 ] } },
{ "type": "Feature", "properties": { "PORT_NAME": "STORSTEILENE", "COUNTRY": "NO", "MAX_VESSEL": null }, "geometry": { "type": "Point", "coordinates": [ 10.6, 59.817 ] } },
{ "type": "Feature", "properties": { "PORT_NAME": "PUERTO YABUCOA", "COUNTRY": "PR", "MAX_VESSEL": "L" }, "geometry": { "type": "Point", "coordinates": [ -65.833, 18.05 ] } },
{ "type": "Feature", "properties": { "PORT_NAME": "FREDERIKSTED", "COUNTRY": "VI", "MAX_VESSEL": "L" }, "geometry": { "type": "Point", "coordinates": [ -64.883, 17.717 ] } },
{ "type": "Feature", "properties": { "PORT_NAME": "NEW ORLEANS", "COUNTRY": "US", "MAX_VESSEL": "L" }, "geometry": { "type": "Point", "coordinates": [ -90.05, 29.95 ] } },
{ "type": "Feature", "properties": { "PORT_NAME": "RESERVE", "COUNTRY": "US", "MAX_VESSEL": "L" }, "geometry": { "type": "Point", "coordinates": [ -90.55, 30.05 ] } },
{ "type": "Feature", "properties": { "PORT_NAME": "LOOP TERMINAL", "COUNTRY": "US", "MAX_VESSEL": "L" }, "geometry": { "type": "Point", "coordinates": [ -90.017, 28.883 ] } },
{ "type": "Feature", "properties": { "PORT_NAME": "ORANJESTAD", "COUNTRY": "BQ", "MAX_VESSEL": "L" }, "geometry": { "type": "Point", "coordinates": [ -62.983, 17.483 ] } },
{ "type": "Feature", "properties": { "PORT_NAME": "ST JOHNS", "COUNTRY": "AG", "MAX_VESSEL": "L" }, "geometry": { "type": "Point", "coordinates": [ -61.85, 17.117 ] } },
{ "type": "Feature", "properties": { "PORT_NAME": "NORFOLK", "COUNTRY": "US", "MAX_VESSEL": "L" }, "geometry": { "type": "Point", "coordinates": [ -76.3, 36.85 ] } },
{ "type": "Feature", "properties": { "PORT_NAME": "JOHOR", "COUNTRY": "MY", "MAX_VESSEL": "L" }, "geometry": { "type": "Point", "coordinates": [ 103.9, 1.433 ] } },
{ "type": "Feature", "properties": { "PORT_NAME": "TANJUNG SANGATA", "COUNTRY": "ID", "MAX_VESSEL": null }, "geometry": { "type": "Point", "coordinates": [ 117.567, 0.367 ] } },
{ "type": "Feature", "properties": { "PORT_NAME": "TANJUNG BALAI KARIMUN", "COUNTRY": "ID", "MAX_VESSEL": "L" }, "geometry": { "type": "Point", "coordinates": [ 103.433, 0.983 ] } },
{ "type": "Feature", "properties": { "PORT_NAME": "MEGA", "COUNTRY": "JP", "MAX_VESSEL": "M" }, "geometry": { "type": "Point", "coordinates": [ 134.7, 34.783 ] } },
{ "type": "Feature", "properties": { "PORT_NAME": "NAMIKATA", "COUNTRY": "JP", "MAX_VESSEL": "M" }, "geometry": { "type": "Point", "coordinates": [ 132.9, 34.117 ] } },
{ "type": "Feature", "properties": { "PORT_NAME": "YANAI", "COUNTRY": "JP", "MAX_VESSEL": "M" }, "geometry": { "type": "Point", "coordinates": [ 132.133, 33.95 ] } },
{ "type": "Feature", "properties": { "PORT_NAME": "PUNTA NIZAO OIL TERMINAL", "COUNTRY": "DO", "MAX_VESSEL": "L" }, "geometry": { "type": "Point", "coordinates": [ -70.2, 18.2 ] } },
{ "type": "Feature", "properties": { "PORT_NAME": "FAWLEY MARINE TERMINAL", "COUNTRY": "GB", "MAX_VESSEL": "L" }, "geometry": { "type": "Point", "coordinates": [ -1.333, 50.817 ] } },
{ "type": "Feature", "properties": { "PORT_NAME": "CAPE FLATTERY HARBOR", "COUNTRY": "AU", "MAX_VESSEL": "M" }, "geometry": { "type": "Point", "coordinates": [ 145.35, -14.95 ] } },
{ "type": "Feature", "properties": { "PORT_NAME": "BIALLA", "COUNTRY": "PG", "MAX_VESSEL": null }, "geometry": { "type": "Point", "coordinates": [ 150.983, -5.3 ] } },
{ "type": "Feature", "properties": { "PORT_NAME": "PORT OF SOHAR", "COUNTRY": "OM", "MAX_VESSEL": null }, "geometry": { "type": "Point", "coordinates": [ 56.633, 24.517 ] } },
{ "type": "Feature", "properties": { "PORT_NAME": "AL SHAHEEN TERMINAL", "COUNTRY": "QA", "MAX_VESSEL": "M" }, "geometry": { "type": "Point", "coordinates": [ 52.0, 26.583 ] } },
{ "type": "Feature", "properties": { "PORT_NAME": "AL RAYYAN TERMINAL", "COUNTRY": "QA", "MAX_VESSEL": "M" }, "geometry": { "type": "Point", "coordinates": [ 51.55, 26.65 ] } },
{ "type": "Feature", "properties": { "PORT_NAME": "JURONG ISLAND", "COUNTRY": "SG", "MAX_VESSEL": "L" }, "geometry": { "type": "Point", "coordinates": [ 103.733, 1.283 ] } },
{ "type": "Feature", "properties": { "PORT_NAME": "PORT DU HAVRE-ANTIFER", "COUNTRY": "FR", "MAX_VESSEL": "L" }, "geometry": { "type": "Point", "coordinates": [ 0.15, 49.65 ] } },
{ "type": "Feature", "properties": { "PORT_NAME": "PORT OF LE HAVRE", "COUNTRY": "FR", "MAX_VESSEL": "L" }, "geometry": { "type": "Point", "coordinates": [ 0.117, 49.483 ] } },
{ "type": "Feature", "properties": { "PORT_NAME": "MATANZAS", "COUNTRY": "CU", "MAX_VESSEL": "L" }, "geometry": { "type": "Point", "coordinates": [ -81.55, 23.05 ] } },
{ "type": "Feature", "properties": { "PORT_NAME": "VALDEZ", "COUNTRY": "US", "MAX_VESSEL": "L" }, "geometry": { "type": "Point", "coordinates": [ -146.25, 61.117 ] } },
{ "type": "Feature", "properties": { "PORT_NAME": "PORT ESQUIVEL", "COUNTRY": "JM", "MAX_VESSEL": "L" }, "geometry": { "type": "Point", "coordinates": [ -77.133, 17.883 ] } },
{ "type": "Feature", "properties": { "PORT_NAME": "CHIRIQUI GRANDE", "COUNTRY": "PA", "MAX_VESSEL": "L" }, "geometry": { "type": "Point", "coordinates": [ -82.117, 8.95 ] } },
{ "type": "Feature", "properties": { "PORT_NAME": "CHARLESTON", "COUNTRY": "US", "MAX_VESSEL": "L" }, "geometry": { "type": "Point", "coordinates": [ -79.917, 32.783 ] } },
{ "type": "Feature", "properties": { "PORT_NAME": "NEW YORK CITY", "COUNTRY": "US", "MAX_VESSEL": "L" }, "geometry": { "type": "Point", "coordinates": [ -74.017, 40.7 ] } },
{ "type": "Feature", "properties": { "PORT_NAME": "FREEPORT", "COUNTRY": "BS", "MAX_VESSEL": "L" }, "geometry": { "type": "Point", "coordinates": [ -78.783, 26.517 ] } },
{ "type": "Feature", "properties": { "PORT_NAME": "SOUTH RIDING POINT", "COUNTRY": "BS", "MAX_VESSEL": "L" }, "geometry": { "type": "Point", "coordinates": [ -78.217, 26.617 ] } },
{ "type": "Feature", "properties": { "PORT_NAME": "PUERTO PRODECO", "COUNTRY": "CO", "MAX_VESSEL": "L" }, "geometry": { "type": "Point", "coordinates": [ -74.217, 11.15 ] } },
{ "type": "Feature", "properties": { "PORT_NAME": "DOS BOCAS TERMINAL", "COUNTRY": "MX", "MAX_VESSEL": "L" }, "geometry": { "type": "Point", "coordinates": [ -93.217, 18.433 ] } },
{ "type": "Feature", "properties": { "PORT_NAME": "ASHQELON", "COUNTRY": "IL", "MAX_VESSEL": "L" }, "geometry": { "type": "Point", "coordinates": [ 34.5, 31.667 ] } },
{ "type": "Feature", "properties": { "PORT_NAME": "ASHTART OIL TERMINAL", "COUNTRY": "TN", "MAX_VESSEL": "L" }, "geometry": { "type": "Point", "coordinates": [ 11.383, 34.283 ] } },
{ "type": "Feature", "properties": { "PORT_NAME": "DIDON TERMINAL", "COUNTRY": "TN", "MAX_VESSEL": "M" }, "geometry": { "type": "Point", "coordinates": [ 11.9, 33.783 ] } },
{ "type": "Feature", "properties": { "PORT_NAME": "MELILLI OIL TERMINAL", "COUNTRY": "IT", "MAX_VESSEL": "L" }, "geometry": { "type": "Point", "coordinates": [ 15.25, 37.117 ] } },
{ "type": "Feature", "properties": { "PORT_NAME": "PORT METHANIER", "COUNTRY": "DZ", "MAX_VESSEL": "M" }, "geometry": { "type": "Point", "coordinates": [ 6.95, 36.883 ] } },
{ "type": "Feature", "properties": { "PORT_NAME": "FORCADOS OIL TERMINAL", "COUNTRY": "NG", "MAX_VESSEL": "L" }, "geometry": { "type": "Point", "coordinates": [ 5.183, 5.167 ] } },
{ "type": "Feature", "properties": { "PORT_NAME": "MOUDI MARINE TERMINAL", "COUNTRY": "CM", "MAX_VESSEL": "M" }, "geometry": { "type": "Point", "coordinates": [ 8.483, 4.117 ] } },
{ "type": "Feature", "properties": { "PORT_NAME": "EBOME MARINE TERMINAL", "COUNTRY": "CM", "MAX_VESSEL": "M" }, "geometry": { "type": "Point", "coordinates": [ 9.817, 2.8 ] } },
{ "type": "Feature", "properties": { "PORT_NAME": "STAPLETON SI", "COUNTRY": "US", "MAX_VESSEL": "L" }, "geometry": { "type": "Point", "coordinates": [ -74.067, 40.633 ] } },
{ "type": "Feature", "properties": { "PORT_NAME": "BANDAR-E SHAHID REAJIE", "COUNTRY": "IR", "MAX_VESSEL": "M" }, "geometry": { "type": "Point", "coordinates": [ 56.067, 27.1 ] } },
{ "type": "Feature", "properties": { "PORT_NAME": "BANDAR TAHERI OFFSHORE TERMINAL", "COUNTRY": "IR", "MAX_VESSEL": "L" }, "geometry": { "type": "Point", "coordinates": [ 52.35, 27.65 ] } },
{ "type": "Feature", "properties": { "PORT_NAME": "ASH SHIHR OIL TERMINAL", "COUNTRY": "YE", "MAX_VESSEL": null }, "geometry": { "type": "Point", "coordinates": [ 49.5, 14.733 ] } },
{ "type": "Feature", "properties": { "PORT_NAME": "HADERA", "COUNTRY": "IL", "MAX_VESSEL": "M" }, "geometry": { "type": "Point", "coordinates": [ 34.9, 32.467 ] } },
{ "type": "Feature", "properties": { "PORT_NAME": "EL HAMRA OIL TERMINAL", "COUNTRY": "EG", "MAX_VESSEL": "L" }, "geometry": { "type": "Point", "coordinates": [ 28.867, 30.983 ] } },
{ "type": "Feature", "properties": { "PORT_NAME": "BOURI OIL FIELD", "COUNTRY": "LY", "MAX_VESSEL": "M" }, "geometry": { "type": "Point", "coordinates": [ 12.65, 33.9 ] } },
{ "type": "Feature", "properties": { "PORT_NAME": "PUNTA EUROPA TERMINAL", "COUNTRY": "GQ", "MAX_VESSEL": "L" }, "geometry": { "type": "Point", "coordinates": [ 8.717, 3.783 ] } },
{ "type": "Feature", "properties": { "PORT_NAME": "YOMBO TERMINAL", "COUNTRY": "CG", "MAX_VESSEL": "L" }, "geometry": { "type": "Point", "coordinates": [ 11.1, -4.45 ] } },
{ "type": "Feature", "properties": { "PORT_NAME": "KUITO OIL FIELD", "COUNTRY": "AO", "MAX_VESSEL": "L" }, "geometry": { "type": "Point", "coordinates": [ 11.5, -5.467 ] } },
{ "type": "Feature", "properties": { "PORT_NAME": "ESPOIR MARINE TERMINAL", "COUNTRY": "CI", "MAX_VESSEL": "L" }, "geometry": { "type": "Point", "coordinates": [ -4.45, 5.05 ] } },
{ "type": "Feature", "properties": { "PORT_NAME": "BAOBAB MARINE TERMINAL", "COUNTRY": "CI", "MAX_VESSEL": "L" }, "geometry": { "type": "Point", "coordinates": [ -4.55, 4.967 ] } },
{ "type": "Feature", "properties": { "PORT_NAME": "ODUDU TERMINAL", "COUNTRY": "NG", "MAX_VESSEL": "L" }, "geometry": { "type": "Point", "coordinates": [ 7.767, 4.0 ] } },
{ "type": "Feature", "properties": { "PORT_NAME": "OKONO TERMINAL", "COUNTRY": "NG", "MAX_VESSEL": "L" }, "geometry": { "type": "Point", "coordinates": [ 7.3, 3.983 ] } },
{ "type": "Feature", "properties": { "PORT_NAME": "OKWORI TERMINAL", "COUNTRY": "NG", "MAX_VESSEL": "L" }, "geometry": { "type": "Point", "coordinates": [ 6.983, 3.85 ] } },
{ "type": "Feature", "properties": { "PORT_NAME": "GIRASSOL TERMINAL", "COUNTRY": "AO", "MAX_VESSEL": "L" }, "geometry": { "type": "Point", "coordinates": [ 11.683, -7.65 ] } },
{ "type": "Feature", "properties": { "PORT_NAME": "AGBAMI OIL TERMINAL", "COUNTRY": "NG", "MAX_VESSEL": "L" }, "geometry": { "type": "Point", "coordinates": [ 5.567, 3.467 ] } },
{ "type": "Feature", "properties": { "PORT_NAME": "EGINA OIL TERMINAL", "COUNTRY": "NG", "MAX_VESSEL": "L" }, "geometry": { "type": "Point", "coordinates": [ 6.7, 3.067 ] } },
{ "type": "Feature", "properties": { "PORT_NAME": "AKPO OIL TERMINAL", "COUNTRY": "NG", "MAX_VESSEL": "L" }, "geometry": { "type": "Point", "coordinates": [ 6.817, 3.133 ] } },
{ "type": "Feature", "properties": { "PORT_NAME": "DUSSAFU TERMINAL", "COUNTRY": "CG", "MAX_VESSEL": "L" }, "geometry": { "type": "Point", "coordinates": [ 10.817, -4.25 ] } },
{ "type": "Feature", "properties": { "PORT_NAME": "KIZOMBA A TERMINAL", "COUNTRY": "AO", "MAX_VESSEL": "L" }, "geometry": { "type": "Point", "coordinates": [ 11.05, -6.317 ] } },
{ "type": "Feature", "properties": { "PORT_NAME": "KIZOMBA B TERMINAL", "COUNTRY": "AO", "MAX_VESSEL": "L" }, "geometry": { "type": "Point", "coordinates": [ 11.15, -6.35 ] } },
{ "type": "Feature", "properties": { "PORT_NAME": "KIZOMBA C TERMINAL", "COUNTRY": "AO", "MAX_VESSEL": "L" }, "geometry": { "type": "Point", "coordinates": [ 11.283, -6.317 ] } },
{ "type": "Feature", "properties": { "PORT_NAME": "DALIA TERMINAL", "COUNTRY": "AO", "MAX_VESSEL": "L" }, "geometry": { "type": "Point", "coordinates": [ 11.767, -7.683 ] } },
{ "type": "Feature", "properties": { "PORT_NAME": "GREATER PLUTONIO TERMINAL", "COUNTRY": "AO", "MAX_VESSEL": "L" }, "geometry": { "type": "Point", "coordinates": [ 12.1, -7.833 ] } },
{ "type": "Feature", "properties": { "PORT_NAME": "ETAME TERMINAL", "COUNTRY": "GA", "MAX_VESSEL": "L" }, "geometry": { "type": "Point", "coordinates": [ 10.517, -3.75 ] } },
{ "type": "Feature", "properties": { "PORT_NAME": "PSVM TERMINAL", "COUNTRY": "AO", "MAX_VESSEL": "L" }, "geometry": { "type": "Point", "coordinates": [ 10.733, -6.25 ] } },
{ "type": "Feature", "properties": { "PORT_NAME": "DUNKERQUE PORT OUEST", "COUNTRY": "FR", "MAX_VESSEL": "L" }, "geometry": { "type": "Point", "coordinates": [ 2.35, 51.067 ] } },
{ "type": "Feature", "properties": { "PORT_NAME": "ITAQUI", "COUNTRY": "BR", "MAX_VESSEL": "L" }, "geometry": { "type": "Point", "coordinates": [ -44.367, -2.567 ] } },
{ "type": "Feature", "properties": { "PORT_NAME": "GEORGETOWN", "COUNTRY": "KY", "MAX_VESSEL": "L" }, "geometry": { "type": "Point", "coordinates": [ -81.383, 19.3 ] } },
{ "type": "Feature", "properties": { "PORT_NAME": "ANACORTES", "COUNTRY": "US", "MAX_VESSEL": "L" }, "geometry": { "type": "Point", "coordinates": [ -122.617, 48.517 ] } },
{ "type": "Feature", "properties": { "PORT_NAME": "CHERRY POINT", "COUNTRY": "US", "MAX_VESSEL": "L" }, "geometry": { "type": "Point", "coordinates": [ -122.75, 48.867 ] } },
{ "type": "Feature", "properties": { "PORT_NAME": "NANAIMO", "COUNTRY": "CA", "MAX_VESSEL": null }, "geometry": { "type": "Point", "coordinates": [ -123.933, 49.167 ] } },
{ "type": "Feature", "properties": { "PORT_NAME": "PORTLAND", "COUNTRY": "US", "MAX_VESSEL": "L" }, "geometry": { "type": "Point", "coordinates": [ -122.667, 45.517 ] } },
{ "type": "Feature", "properties": { "PORT_NAME": "SALEM NJ", "COUNTRY": "US", "MAX_VESSEL": "M" }, "geometry": { "type": "Point", "coordinates": [ -75.483, 39.667 ] } },
{ "type": "Feature", "properties": { "PORT_NAME": "CAYO ARCAS TERMINAL", "COUNTRY": "MX", "MAX_VESSEL": "L" }, "geometry": { "type": "Point", "coordinates": [ -91.983, 20.167 ] } },
{ "type": "Feature", "properties": { "PORT_NAME": "ESTRELA OIL FIELD", "COUNTRY": "AO", "MAX_VESSEL": "L" }, "geometry": { "type": "Point", "coordinates": [ 12.4, -6.45 ] } },
{ "type": "Feature", "properties": { "PORT_NAME": "COVENAS OFFSHORE TERM.", "COUNTRY": "CO", "MAX_VESSEL": "L" }, "geometry": { "type": "Point", "coordinates": [ -75.733, 9.5 ] } },
{ "type": "Feature", "properties": { "PORT_NAME": "VILA DO CONDE", "COUNTRY": "BR", "MAX_VESSEL": "L" }, "geometry": { "type": "Point", "coordinates": [ -48.75, -1.55 ] } },
{ "type": "Feature", "properties": { "PORT_NAME": "UKPOKITI MARINE TERMINAL", "COUNTRY": "NG", "MAX_VESSEL": "L" }, "geometry": { "type": "Point", "coordinates": [ 4.833, 5.717 ] } },
{ "type": "Feature", "properties": { "PORT_NAME": "ACAJUTLA OFFSHORE TERMINAL", "COUNTRY": "SV", "MAX_VESSEL": "L" }, "geometry": { "type": "Point", "coordinates": [ -89.867, 13.583 ] } },
{ "type": "Feature", "properties": { "PORT_NAME": "TAKULA TERMINAL", "COUNTRY": "AO", "MAX_VESSEL": "L" }, "geometry": { "type": "Point", "coordinates": [ 11.783, -5.217 ] } },
{ "type": "Feature", "properties": { "PORT_NAME": "KOME KRIBI 1 MARINE TERMINAL", "COUNTRY": "CM", "MAX_VESSEL": "L" }, "geometry": { "type": "Point", "coordinates": [ 9.8, 2.917 ] } },
{ "type": "Feature", "properties": { "PORT_NAME": "LIMBOH TERMINAL", "COUNTRY": "CM", "MAX_VESSEL": "L" }, "geometry": { "type": "Point", "coordinates": [ 9.15, 3.983 ] } },
{ "type": "Feature", "properties": { "PORT_NAME": "CEIBA TERMINAL", "COUNTRY": "GQ", "MAX_VESSEL": "M" }, "geometry": { "type": "Point", "coordinates": [ 9.233, 1.417 ] } },
{ "type": "Feature", "properties": { "PORT_NAME": "SERPENTINA TERMINAL", "COUNTRY": "GQ", "MAX_VESSEL": "L" }, "geometry": { "type": "Point", "coordinates": [ 8.083, 3.8 ] } },
{ "type": "Feature", "properties": { "PORT_NAME": "SIDON\/ZAHRANI TERMINAL", "COUNTRY": "LB", "MAX_VESSEL": "M" }, "geometry": { "type": "Point", "coordinates": [ 35.317, 33.533 ] } },
{ "type": "Feature", "properties": { "PORT_NAME": "ANTALYA OFFSHORE TERMINAL", "COUNTRY": "TR", "MAX_VESSEL": "M" }, "geometry": { "type": "Point", "coordinates": [ 30.6, 36.817 ] } },
{ "type": "Feature", "properties": { "PORT_NAME": "BOTAS DORTYOL OIL TERMINAL", "COUNTRY": "TR", "MAX_VESSEL": "M" }, "geometry": { "type": "Point", "coordinates": [ 36.133, 36.867 ] } },
{ "type": "Feature", "properties": { "PORT_NAME": "YAKACIK", "COUNTRY": "TR", "MAX_VESSEL": "M" }, "geometry": { "type": "Point", "coordinates": [ 36.183, 36.717 ] } },
{ "type": "Feature", "properties": { "PORT_NAME": "GEBZE", "COUNTRY": "TR", "MAX_VESSEL": "L" }, "geometry": { "type": "Point", "coordinates": [ 29.55, 40.767 ] } },
{ "type": "Feature", "properties": { "PORT_NAME": "STURA", "COUNTRY": "NO", "MAX_VESSEL": "L" }, "geometry": { "type": "Point", "coordinates": [ 4.85, 60.617 ] } },
{ "type": "Feature", "properties": { "PORT_NAME": "GEMLIK", "COUNTRY": "TR", "MAX_VESSEL": "M" }, "geometry": { "type": "Point", "coordinates": [ 29.117, 40.417 ] } },
{ "type": "Feature", "properties": { "PORT_NAME": "PORT DE ARACAJU", "COUNTRY": "BR", "MAX_VESSEL": "L" }, "geometry": { "type": "Point", "coordinates": [ -37.05, -10.917 ] } },
{ "type": "Feature", "properties": { "PORT_NAME": "KAVALA", "COUNTRY": "GR", "MAX_VESSEL": "M" }, "geometry": { "type": "Point", "coordinates": [ 24.4, 40.933 ] } },
{ "type": "Feature", "properties": { "PORT_NAME": "COME BY CHANCE HARBOR", "COUNTRY": "CA", "MAX_VESSEL": "L" }, "geometry": { "type": "Point", "coordinates": [ -54.017, 47.8 ] } },
{ "type": "Feature", "properties": { "PORT_NAME": "SIDI KERIR (KURAYR)", "COUNTRY": "EG", "MAX_VESSEL": "L" }, "geometry": { "type": "Point", "coordinates": [ 29.617, 31.1 ] } },
{ "type": "Feature", "properties": { "PORT_NAME": "STROMSTAD", "COUNTRY": "SE", "MAX_VESSEL": null }, "geometry": { "type": "Point", "coordinates": [ 11.167, 58.933 ] } },
{ "type": "Feature", "properties": { "PORT_NAME": "HONNINGSVAG", "COUNTRY": "NO", "MAX_VESSEL": "L" }, "geometry": { "type": "Point", "coordinates": [ 26.0, 70.983 ] } },
{ "type": "Feature", "properties": { "PORT_NAME": "GRAND CUL DE SAC BAY", "COUNTRY": "LC", "MAX_VESSEL": "L" }, "geometry": { "type": "Point", "coordinates": [ -61.017, 13.983 ] } },
{ "type": "Feature", "properties": { "PORT_NAME": "KAMBO", "COUNTRY": "NO", "MAX_VESSEL": "M" }, "geometry": { "type": "Point", "coordinates": [ 10.683, 59.467 ] } },
{ "type": "Feature", "properties": { "PORT_NAME": "BRIDGETOWN", "COUNTRY": "BB", "MAX_VESSEL": "L" }, "geometry": { "type": "Point", "coordinates": [ -59.633, 13.1 ] } },
{ "type": "Feature", "properties": { "PORT_NAME": "NIKISKI", "COUNTRY": "US", "MAX_VESSEL": "L" }, "geometry": { "type": "Point", "coordinates": [ -151.4, 60.683 ] } },
{ "type": "Feature", "properties": { "PORT_NAME": "DRIFT RIVER", "COUNTRY": "US", "MAX_VESSEL": null }, "geometry": { "type": "Point", "coordinates": [ -152.133, 60.55 ] } },
{ "type": "Feature", "properties": { "PORT_NAME": "PUERTO CORTES", "COUNTRY": "HN", "MAX_VESSEL": "L" }, "geometry": { "type": "Point", "coordinates": [ -87.95, 15.833 ] } },
{ "type": "Feature", "properties": { "PORT_NAME": "SEATTLE", "COUNTRY": "US", "MAX_VESSEL": "L" }, "geometry": { "type": "Point", "coordinates": [ -122.333, 47.6 ] } },
{ "type": "Feature", "properties": { "PORT_NAME": "POINT WELLS", "COUNTRY": "US", "MAX_VESSEL": null }, "geometry": { "type": "Point", "coordinates": [ -122.4, 47.783 ] } },
{ "type": "Feature", "properties": { "PORT_NAME": "ASTORIA", "COUNTRY": "US", "MAX_VESSEL": "L" }, "geometry": { "type": "Point", "coordinates": [ -123.833, 46.2 ] } },
{ "type": "Feature", "properties": { "PORT_NAME": "POINT RICHMOND", "COUNTRY": "US", "MAX_VESSEL": "L" }, "geometry": { "type": "Point", "coordinates": [ -122.367, 37.917 ] } },
{ "type": "Feature", "properties": { "PORT_NAME": "GOTO OIL TERMINAL", "COUNTRY": "BQ", "MAX_VESSEL": "L" }, "geometry": { "type": "Point", "coordinates": [ -68.383, 12.217 ] } },
{ "type": "Feature", "properties": { "PORT_NAME": "CARACASBAAI", "COUNTRY": "CW", "MAX_VESSEL": "L" }, "geometry": { "type": "Point", "coordinates": [ -68.867, 12.067 ] } },
{ "type": "Feature", "properties": { "PORT_NAME": "WILLEMSTAD", "COUNTRY": "CW", "MAX_VESSEL": "L" }, "geometry": { "type": "Point", "coordinates": [ -68.933, 12.117 ] } },
{ "type": "Feature", "properties": { "PORT_NAME": "BULLEN BAAI", "COUNTRY": "CW", "MAX_VESSEL": "L" }, "geometry": { "type": "Point", "coordinates": [ -69.033, 12.183 ] } },
{ "type": "Feature", "properties": { "PORT_NAME": "COVENAS", "COUNTRY": "CO", "MAX_VESSEL": "L" }, "geometry": { "type": "Point", "coordinates": [ -75.683, 9.417 ] } },
{ "type": "Feature", "properties": { "PORT_NAME": "SAN PEDRO DE MACORIS", "COUNTRY": "DO", "MAX_VESSEL": "L" }, "geometry": { "type": "Point", "coordinates": [ -69.317, 18.45 ] } },
{ "type": "Feature", "properties": { "PORT_NAME": "ANDRES (ANDRES LNG TERMINAL)", "COUNTRY": "DO", "MAX_VESSEL": "M" }, "geometry": { "type": "Point", "coordinates": [ -69.633, 18.433 ] } },
{ "type": "Feature", "properties": { "PORT_NAME": "ARGENTIA", "COUNTRY": "CA", "MAX_VESSEL": "M" }, "geometry": { "type": "Point", "coordinates": [ -53.983, 47.3 ] } },
{ "type": "Feature", "properties": { "PORT_NAME": "CONCHAN OIL TERMINAL", "COUNTRY": "PE", "MAX_VESSEL": "L" }, "geometry": { "type": "Point", "coordinates": [ -77.0, -12.167 ] } },
{ "type": "Feature", "properties": { "PORT_NAME": "LA PAMPILLA OIL TERMINAL", "COUNTRY": "PE", "MAX_VESSEL": null }, "geometry": { "type": "Point", "coordinates": [ -77.133, -11.933 ] } },
{ "type": "Feature", "properties": { "PORT_NAME": "ZIRKUH OIL FIELD", "COUNTRY": "AE", "MAX_VESSEL": null }, "geometry": { "type": "Point", "coordinates": [ 53.05, 24.867 ] } },
{ "type": "Feature", "properties": { "PORT_NAME": "BARBERS POINT TERMINAL", "COUNTRY": "US", "MAX_VESSEL": "M" }, "geometry": { "type": "Point", "coordinates": [ -158.1, 21.267 ] } },
{ "type": "Feature", "properties": { "PORT_NAME": "ISLE OF GRAIN", "COUNTRY": "GB", "MAX_VESSEL": "L" }, "geometry": { "type": "Point", "coordinates": [ 0.7, 51.433 ] } },
{ "type": "Feature", "properties": { "PORT_NAME": "LIVERPOOL BAY TERMINAL", "COUNTRY": "GB", "MAX_VESSEL": "M" }, "geometry": { "type": "Point", "coordinates": [ -3.55, 53.533 ] } },
{ "type": "Feature", "properties": { "PORT_NAME": "YETAGUN MARINE TERMINAL", "COUNTRY": "MM", "MAX_VESSEL": null }, "geometry": { "type": "Point", "coordinates": [ 96.85, 13.05 ] } },
{ "type": "Feature", "properties": { "PORT_NAME": "TERMINI IMERESE", "COUNTRY": "IT", "MAX_VESSEL": "M" }, "geometry": { "type": "Point", "coordinates": [ 13.7, 37.983 ] } }
]
}
