{
"type": "FeatureCollection",
"name": "OilPorts-refactored",
"crs": { "type": "name", "properties": { "name": "urn:ogc:def:crs:OGC:1.3:CRS84" } },
"features": [
{ "type": "Feature", "properties": { "category": "Oil Port", "title": "TOMAKOMAI KO", "entity": "", "description": "", "comment": "", "capacity": "L", "link1": "", "link2": "", "link3": "", "source": "", "variable1": "", "variable2": "" }, "geometry": { "type": "Point", "coordinates": [ 141.633, 42.633 ] } },
{ "type": "Feature", "properties": { "category": "Oil Port", "title": "MURORAN KO", "entity": "", "description": "", "comment": "", "capacity": "L", "link1": "", "link2": "", "link3": "", "source": "", "variable1": "", "variable2": "" }, "geometry": { "type": "Point", "coordinates": [ 140.967, 42.35 ] } },
{ "type": "Feature", "properties": { "category": "Oil Port", "title": "RAS SHUKHIER", "entity": "", "description": "", "comment": "", "capacity": "M", "link1": "", "link2": "", "link3": "", "source": "", "variable1": "", "variable2": "" }, "geometry": { "type": "Point", "coordinates": [ 33.283, 28.133 ] } },
{ "type": "Feature", "properties": { "category": "Oil Port", "title": "AL AQABAH", "entity": "", "description": "", "comment": "", "capacity": "M", "link1": "", "link2": "", "link3": "", "source": "", "variable1": "", "variable2": "" }, "geometry": { "type": "Point", "coordinates": [ 35.0, 29.517 ] } },
{ "type": "Feature", "properties": { "category": "Oil Port", "title": "YANBU", "entity": "", "description": "", "comment": "", "capacity": "M", "link1": "", "link2": "", "link3": "", "source": "", "variable1": "", "variable2": "" }, "geometry": { "type": "Point", "coordinates": [ 38.05, 24.083 ] } },
{ "type": "Feature", "properties": { "category": "Oil Port", "title": "JIZAN", "entity": "", "description": "", "comment": "", "capacity": "M", "link1": "", "link2": "", "link3": "", "source": "", "variable1": "", "variable2": "" }, "geometry": { "type": "Point", "coordinates": [ 42.483, 16.9 ] } },
{ "type": "Feature", "properties": { "category": "Oil Port", "title": "CROMARTY", "entity": "", "description": "", "comment": "", "capacity": "M", "link1": "", "link2": "", "link3": "", "source": "", "variable1": "", "variable2": "" }, "geometry": { "type": "Point", "coordinates": [ -4.033, 57.683 ] } },
{ "type": "Feature", "properties": { "category": "Oil Port", "title": "INVERGORDON", "entity": "", "description": "", "comment": "", "capacity": "L", "link1": "", "link2": "", "link3": "", "source": "", "variable1": "", "variable2": "" }, "geometry": { "type": "Point", "coordinates": [ -4.167, 57.683 ] } },
{ "type": "Feature", "properties": { "category": "Oil Port", "title": "LYNESS", "entity": "", "description": "", "comment": "", "capacity": "no information", "link1": "", "link2": "", "link3": "", "source": "", "variable1": "", "variable2": "" }, "geometry": { "type": "Point", "coordinates": [ -3.2, 58.833 ] } },
{ "type": "Feature", "properties": { "category": "Oil Port", "title": "SCAPA BAY", "entity": "", "description": "", "comment": "", "capacity": "L", "link1": "", "link2": "", "link3": "", "source": "", "variable1": "", "variable2": "" }, "geometry": { "type": "Point", "coordinates": [ -2.983, 58.95 ] } },
{ "type": "Feature", "properties": { "category": "Oil Port", "title": "GEBIG", "entity": "", "description": "", "comment": "", "capacity": "L", "link1": "", "link2": "", "link3": "", "source": "", "variable1": "", "variable2": "" }, "geometry": { "type": "Point", "coordinates": [ -44.217, -23.05 ] } },
{ "type": "Feature", "properties": { "category": "Oil Port", "title": "ULSAN", "entity": "", "description": "", "comment": "", "capacity": "L", "link1": "", "link2": "", "link3": "", "source": "", "variable1": "", "variable2": "" }, "geometry": { "type": "Point", "coordinates": [ 129.4, 35.45 ] } },
{ "type": "Feature", "properties": { "category": "Oil Port", "title": "ZHEN HAI", "entity": "", "description": "", "comment": "", "capacity": "M", "link1": "", "link2": "", "link3": "", "source": "", "variable1": "", "variable2": "" }, "geometry": { "type": "Point", "coordinates": [ 121.7, 29.95 ] } },
{ "type": "Feature", "properties": { "category": "Oil Port", "title": "HANKOW", "entity": "", "description": "", "comment": "", "capacity": "no information", "link1": "", "link2": "", "link3": "", "source": "", "variable1": "", "variable2": "" }, "geometry": { "type": "Point", "coordinates": [ 114.283, 30.583 ] } },
{ "type": "Feature", "properties": { "category": "Oil Port", "title": "DOUALA", "entity": "", "description": "", "comment": "", "capacity": "L", "link1": "", "link2": "", "link3": "", "source": "", "variable1": "", "variable2": "" }, "geometry": { "type": "Point", "coordinates": [ 9.683, 4.05 ] } },
{ "type": "Feature", "properties": { "category": "Oil Port", "title": "KOLE OIL TERMINAL", "entity": "", "description": "", "comment": "", "capacity": "M", "link1": "", "link2": "", "link3": "", "source": "", "variable1": "", "variable2": "" }, "geometry": { "type": "Point", "coordinates": [ 8.55, 4.25 ] } },
{ "type": "Feature", "properties": { "category": "Oil Port", "title": "PORT GENTIL", "entity": "", "description": "", "comment": "", "capacity": "L", "link1": "", "link2": "", "link3": "", "source": "", "variable1": "", "variable2": "" }, "geometry": { "type": "Point", "coordinates": [ 8.8, -0.7 ] } },
{ "type": "Feature", "properties": { "category": "Oil Port", "title": "CAP LOPEZ", "entity": "", "description": "", "comment": "", "capacity": "L", "link1": "", "link2": "", "link3": "", "source": "", "variable1": "", "variable2": "" }, "geometry": { "type": "Point", "coordinates": [ 8.717, -0.633 ] } },
{ "type": "Feature", "properties": { "category": "Oil Port", "title": "TERNATE", "entity": "", "description": "", "comment": "", "capacity": "M", "link1": "", "link2": "", "link3": "", "source": "", "variable1": "", "variable2": "" }, "geometry": { "type": "Point", "coordinates": [ 127.383, 0.783 ] } },
{ "type": "Feature", "properties": { "category": "Oil Port", "title": "SALAWATI", "entity": "", "description": "", "comment": "", "capacity": "M", "link1": "", "link2": "", "link3": "", "source": "", "variable1": "", "variable2": "" }, "geometry": { "type": "Point", "coordinates": [ 130.983, -1.35 ] } },
{ "type": "Feature", "properties": { "category": "Oil Port", "title": "BINTULU PORT", "entity": "", "description": "", "comment": "", "capacity": "L", "link1": "", "link2": "", "link3": "", "source": "", "variable1": "", "variable2": "" }, "geometry": { "type": "Point", "coordinates": [ 113.067, 3.267 ] } },
{ "type": "Feature", "properties": { "category": "Oil Port", "title": "LUTONG", "entity": "", "description": "", "comment": "", "capacity": "L", "link1": "", "link2": "", "link3": "", "source": "", "variable1": "", "variable2": "" }, "geometry": { "type": "Point", "coordinates": [ 114.0, 4.467 ] } },
{ "type": "Feature", "properties": { "category": "Oil Port", "title": "CIVITAVECCHIA", "entity": "", "description": "", "comment": "", "capacity": "M", "link1": "", "link2": "", "link3": "", "source": "", "variable1": "", "variable2": "" }, "geometry": { "type": "Point", "coordinates": [ 11.783, 42.1 ] } },
{ "type": "Feature", "properties": { "category": "Oil Port", "title": "NAPOLI", "entity": "", "description": "", "comment": "", "capacity": "L", "link1": "", "link2": "", "link3": "", "source": "", "variable1": "", "variable2": "" }, "geometry": { "type": "Point", "coordinates": [ 14.267, 40.85 ] } },
{ "type": "Feature", "properties": { "category": "Oil Port", "title": "SULLOM VOE", "entity": "", "description": "", "comment": "", "capacity": "L", "link1": "", "link2": "", "link3": "", "source": "", "variable1": "", "variable2": "" }, "geometry": { "type": "Point", "coordinates": [ -1.3, 60.467 ] } },
{ "type": "Feature", "properties": { "category": "Oil Port", "title": "HIROSHIMA", "entity": "", "description": "", "comment": "", "capacity": "L", "link1": "", "link2": "", "link3": "", "source": "", "variable1": "", "variable2": "" }, "geometry": { "type": "Point", "coordinates": [ 132.467, 34.35 ] } },
{ "type": "Feature", "properties": { "category": "Oil Port", "title": "JOSE IGNACIO", "entity": "", "description": "", "comment": "", "capacity": "no information", "link1": "", "link2": "", "link3": "", "source": "", "variable1": "", "variable2": "" }, "geometry": { "type": "Point", "coordinates": [ -54.7, -34.95 ] } },
{ "type": "Feature", "properties": { "category": "Oil Port", "title": "BAR", "entity": "", "description": "", "comment": "", "capacity": "L", "link1": "", "link2": "", "link3": "", "source": "", "variable1": "", "variable2": "" }, "geometry": { "type": "Point", "coordinates": [ 19.083, 42.083 ] } },
{ "type": "Feature", "properties": { "category": "Oil Port", "title": "DJENO TERMINAL", "entity": "", "description": "", "comment": "", "capacity": "L", "link1": "", "link2": "", "link3": "", "source": "", "variable1": "", "variable2": "" }, "geometry": { "type": "Point", "coordinates": [ 11.9, -4.933 ] } },
{ "type": "Feature", "properties": { "category": "Oil Port", "title": "N'KOSSA TERMINAL", "entity": "", "description": "", "comment": "", "capacity": "no information", "link1": "", "link2": "", "link3": "", "source": "", "variable1": "", "variable2": "" }, "geometry": { "type": "Point", "coordinates": [ 11.567, -5.267 ] } },
{ "type": "Feature", "properties": { "category": "Oil Port", "title": "YOHO TERMINAL", "entity": "", "description": "", "comment": "", "capacity": "no information", "link1": "", "link2": "", "link3": "", "source": "", "variable1": "", "variable2": "" }, "geometry": { "type": "Point", "coordinates": [ 7.467, 4.017 ] } },
{ "type": "Feature", "properties": { "category": "Oil Port", "title": "SEA EAGLE TERMINAL", "entity": "", "description": "", "comment": "", "capacity": "L", "link1": "", "link2": "", "link3": "", "source": "", "variable1": "", "variable2": "" }, "geometry": { "type": "Point", "coordinates": [ 5.317, 4.8 ] } },
{ "type": "Feature", "properties": { "category": "Oil Port", "title": "QUA IBOE OIL TERMINAL", "entity": "", "description": "", "comment": "", "capacity": "L", "link1": "", "link2": "", "link3": "", "source": "", "variable1": "", "variable2": "" }, "geometry": { "type": "Point", "coordinates": [ 8.033, 4.233 ] } },
{ "type": "Feature", "properties": { "category": "Oil Port", "title": "PENNINGTON OIL TERMINAL", "entity": "", "description": "", "comment": "", "capacity": "L", "link1": "", "link2": "", "link3": "", "source": "", "variable1": "", "variable2": "" }, "geometry": { "type": "Point", "coordinates": [ 5.617, 4.25 ] } },
{ "type": "Feature", "properties": { "category": "Oil Port", "title": "BONNY OFFSHORE TERMINAL", "entity": "", "description": "", "comment": "", "capacity": "L", "link1": "", "link2": "", "link3": "", "source": "", "variable1": "", "variable2": "" }, "geometry": { "type": "Point", "coordinates": [ 7.233, 4.183 ] } },
{ "type": "Feature", "properties": { "category": "Oil Port", "title": "OGUENDJO TERMINAL", "entity": "", "description": "", "comment": "", "capacity": "L", "link1": "", "link2": "", "link3": "", "source": "", "variable1": "", "variable2": "" }, "geometry": { "type": "Point", "coordinates": [ 8.917, -1.467 ] } },
{ "type": "Feature", "properties": { "category": "Oil Port", "title": "GAMBA OIL TERMINAL", "entity": "", "description": "", "comment": "", "capacity": "L", "link1": "", "link2": "", "link3": "", "source": "", "variable1": "", "variable2": "" }, "geometry": { "type": "Point", "coordinates": [ 10.0, -2.833 ] } },
{ "type": "Feature", "properties": { "category": "Oil Port", "title": "MALONGO OIL TERMINAL", "entity": "", "description": "", "comment": "", "capacity": "L", "link1": "", "link2": "", "link3": "", "source": "", "variable1": "", "variable2": "" }, "geometry": { "type": "Point", "coordinates": [ 12.083, -5.433 ] } },
{ "type": "Feature", "properties": { "category": "Oil Port", "title": "PALANCA TERMINAL", "entity": "", "description": "", "comment": "", "capacity": "L", "link1": "", "link2": "", "link3": "", "source": "", "variable1": "", "variable2": "" }, "geometry": { "type": "Point", "coordinates": [ 12.4, -6.95 ] } },
{ "type": "Feature", "properties": { "category": "Oil Port", "title": "LUANDA", "entity": "", "description": "", "comment": "", "capacity": "L", "link1": "", "link2": "", "link3": "", "source": "", "variable1": "", "variable2": "" }, "geometry": { "type": "Point", "coordinates": [ 13.25, -8.8 ] } },
{ "type": "Feature", "properties": { "category": "Oil Port", "title": "BONNY", "entity": "", "description": "", "comment": "", "capacity": "L", "link1": "", "link2": "", "link3": "", "source": "", "variable1": "", "variable2": "" }, "geometry": { "type": "Point", "coordinates": [ 7.167, 4.45 ] } },
{ "type": "Feature", "properties": { "category": "Oil Port", "title": "KAMSAR", "entity": "", "description": "", "comment": "", "capacity": "M", "link1": "", "link2": "", "link3": "", "source": "", "variable1": "", "variable2": "" }, "geometry": { "type": "Point", "coordinates": [ -14.617, 10.633 ] } },
{ "type": "Feature", "properties": { "category": "Oil Port", "title": "TIANJIN XIN GANG", "entity": "", "description": "", "comment": "", "capacity": "L", "link1": "", "link2": "", "link3": "", "source": "", "variable1": "", "variable2": "" }, "geometry": { "type": "Point", "coordinates": [ 117.833, 38.967 ] } },
{ "type": "Feature", "properties": { "category": "Oil Port", "title": "DALIAN", "entity": "", "description": "", "comment": "", "capacity": "L", "link1": "", "link2": "", "link3": "", "source": "", "variable1": "", "variable2": "" }, "geometry": { "type": "Point", "coordinates": [ 121.667, 38.917 ] } },
{ "type": "Feature", "properties": { "category": "Oil Port", "title": "PORT-LA-NOUVELLE", "entity": "", "description": "", "comment": "", "capacity": "M", "link1": "", "link2": "", "link3": "", "source": "", "variable1": "", "variable2": "" }, "geometry": { "type": "Point", "coordinates": [ 3.067, 43.017 ] } },
{ "type": "Feature", "properties": { "category": "Oil Port", "title": "PORT SAINT LOUIS DU RHONE", "entity": "", "description": "", "comment": "", "capacity": "L", "link1": "", "link2": "", "link3": "", "source": "", "variable1": "", "variable2": "" }, "geometry": { "type": "Point", "coordinates": [ 4.817, 43.383 ] } },
{ "type": "Feature", "properties": { "category": "Oil Port", "title": "FOS", "entity": "", "description": "", "comment": "", "capacity": "L", "link1": "", "link2": "", "link3": "", "source": "", "variable1": "", "variable2": "" }, "geometry": { "type": "Point", "coordinates": [ 4.883, 43.417 ] } },
{ "type": "Feature", "properties": { "category": "Oil Port", "title": "SARROCH OIL TERMINAL", "entity": "", "description": "", "comment": "", "capacity": "L", "link1": "", "link2": "", "link3": "", "source": "", "variable1": "", "variable2": "" }, "geometry": { "type": "Point", "coordinates": [ 9.033, 39.083 ] } },
{ "type": "Feature", "properties": { "category": "Oil Port", "title": "VICTORIA", "entity": "", "description": "", "comment": "", "capacity": "L", "link1": "", "link2": "", "link3": "", "source": "", "variable1": "", "variable2": "" }, "geometry": { "type": "Point", "coordinates": [ 115.233, 5.283 ] } },
{ "type": "Feature", "properties": { "category": "Oil Port", "title": "TANJUNG ARANG  (BUNYU)", "entity": "", "description": "", "comment": "", "capacity": "M", "link1": "", "link2": "", "link3": "", "source": "", "variable1": "", "variable2": "" }, "geometry": { "type": "Point", "coordinates": [ 117.833, 3.467 ] } },
{ "type": "Feature", "properties": { "category": "Oil Port", "title": "BONTANG LNG TERMINAL", "entity": "", "description": "", "comment": "", "capacity": "L", "link1": "", "link2": "", "link3": "", "source": "", "variable1": "", "variable2": "" }, "geometry": { "type": "Point", "coordinates": [ 117.483, 0.1 ] } },
{ "type": "Feature", "properties": { "category": "Oil Port", "title": "TANJUNG SANTAN", "entity": "", "description": "", "comment": "", "capacity": "M", "link1": "", "link2": "", "link3": "", "source": "", "variable1": "", "variable2": "" }, "geometry": { "type": "Point", "coordinates": [ 117.533, -0.1 ] } },
{ "type": "Feature", "properties": { "category": "Oil Port", "title": "POZOS COLORADOS", "entity": "", "description": "", "comment": "", "capacity": "L", "link1": "", "link2": "", "link3": "", "source": "", "variable1": "", "variable2": "" }, "geometry": { "type": "Point", "coordinates": [ -74.25, 11.15 ] } },
{ "type": "Feature", "properties": { "category": "Oil Port", "title": "PUERTO MOIN", "entity": "", "description": "", "comment": "", "capacity": "L", "link1": "", "link2": "", "link3": "", "source": "", "variable1": "", "variable2": "" }, "geometry": { "type": "Point", "coordinates": [ -83.083, 10.0 ] } },
{ "type": "Feature", "properties": { "category": "Oil Port", "title": "HAZIRA", "entity": "", "description": "", "comment": "", "capacity": "L", "link1": "", "link2": "", "link3": "", "source": "", "variable1": "", "variable2": "" }, "geometry": { "type": "Point", "coordinates": [ 72.633, 21.083 ] } },
{ "type": "Feature", "properties": { "category": "Oil Port", "title": "SHIMONOSEKI", "entity": "", "description": "", "comment": "", "capacity": "M", "link1": "", "link2": "", "link3": "", "source": "", "variable1": "", "variable2": "" }, "geometry": { "type": "Point", "coordinates": [ 130.933, 33.933 ] } },
{ "type": "Feature", "properties": { "category": "Oil Port", "title": "PORT COSTA", "entity": "", "description": "", "comment": "", "capacity": "no information", "link1": "", "link2": "", "link3": "", "source": "", "variable1": "", "variable2": "" }, "geometry": { "type": "Point", "coordinates": [ -122.183, 38.05 ] } },
{ "type": "Feature", "properties": { "category": "Oil Port", "title": "KLAIPEDA", "entity": "", "description": "", "comment": "", "capacity": "M", "link1": "", "link2": "", "link3": "", "source": "", "variable1": "", "variable2": "" }, "geometry": { "type": "Point", "coordinates": [ 21.117, 55.717 ] } },
{ "type": "Feature", "properties": { "category": "Oil Port", "title": "PUERTO CASTRO", "entity": "", "description": "", "comment": "", "capacity": "M", "link1": "", "link2": "", "link3": "", "source": "", "variable1": "", "variable2": "" }, "geometry": { "type": "Point", "coordinates": [ -73.767, -42.483 ] } },
{ "type": "Feature", "properties": { "category": "Oil Port", "title": "INCHON", "entity": "", "description": "", "comment": "", "capacity": "M", "link1": "", "link2": "", "link3": "", "source": "", "variable1": "", "variable2": "" }, "geometry": { "type": "Point", "coordinates": [ 126.617, 37.467 ] } },
{ "type": "Feature", "properties": { "category": "Oil Port", "title": "YOSU", "entity": "", "description": "", "comment": "", "capacity": "L", "link1": "", "link2": "", "link3": "", "source": "", "variable1": "", "variable2": "" }, "geometry": { "type": "Point", "coordinates": [ 127.75, 34.733 ] } },
{ "type": "Feature", "properties": { "category": "Oil Port", "title": "MATI", "entity": "", "description": "", "comment": "", "capacity": "L", "link1": "", "link2": "", "link3": "", "source": "", "variable1": "", "variable2": "" }, "geometry": { "type": "Point", "coordinates": [ 126.217, 6.95 ] } },
{ "type": "Feature", "properties": { "category": "Oil Port", "title": "SENIPAH OIL TERMINAL", "entity": "", "description": "", "comment": "", "capacity": "M", "link1": "", "link2": "", "link3": "", "source": "", "variable1": "", "variable2": "" }, "geometry": { "type": "Point", "coordinates": [ 117.167, -0.95 ] } },
{ "type": "Feature", "properties": { "category": "Oil Port", "title": "LAWI LAWI OIL TERMINAL", "entity": "", "description": "", "comment": "", "capacity": "L", "link1": "", "link2": "", "link3": "", "source": "", "variable1": "", "variable2": "" }, "geometry": { "type": "Point", "coordinates": [ 116.767, -1.45 ] } },
{ "type": "Feature", "properties": { "category": "Oil Port", "title": "KOTA BARU", "entity": "", "description": "", "comment": "", "capacity": "M", "link1": "", "link2": "", "link3": "", "source": "", "variable1": "", "variable2": "" }, "geometry": { "type": "Point", "coordinates": [ 116.217, -3.233 ] } },
{ "type": "Feature", "properties": { "category": "Oil Port", "title": "BANJARMASIN", "entity": "", "description": "", "comment": "", "capacity": "M", "link1": "", "link2": "", "link3": "", "source": "", "variable1": "", "variable2": "" }, "geometry": { "type": "Point", "coordinates": [ 114.583, -3.333 ] } },
{ "type": "Feature", "properties": { "category": "Oil Port", "title": "PONTIANAK", "entity": "", "description": "", "comment": "", "capacity": "M", "link1": "", "link2": "", "link3": "", "source": "", "variable1": "", "variable2": "" }, "geometry": { "type": "Point", "coordinates": [ 109.333, -0.017 ] } },
{ "type": "Feature", "properties": { "category": "Oil Port", "title": "SUNGAIPAKNING", "entity": "", "description": "", "comment": "", "capacity": "L", "link1": "", "link2": "", "link3": "", "source": "", "variable1": "", "variable2": "" }, "geometry": { "type": "Point", "coordinates": [ 102.167, 1.35 ] } },
{ "type": "Feature", "properties": { "category": "Oil Port", "title": "BANTEN", "entity": "", "description": "", "comment": "", "capacity": "M", "link1": "", "link2": "", "link3": "", "source": "", "variable1": "", "variable2": "" }, "geometry": { "type": "Point", "coordinates": [ 105.967, -6.017 ] } },
{ "type": "Feature", "properties": { "category": "Oil Port", "title": "TANJUNG SEKONG", "entity": "", "description": "", "comment": "", "capacity": "M", "link1": "", "link2": "", "link3": "", "source": "", "variable1": "", "variable2": "" }, "geometry": { "type": "Point", "coordinates": [ 106.0, -5.917 ] } },
{ "type": "Feature", "properties": { "category": "Oil Port", "title": "JAKARTA", "entity": "", "description": "", "comment": "", "capacity": "M", "link1": "", "link2": "", "link3": "", "source": "", "variable1": "", "variable2": "" }, "geometry": { "type": "Point", "coordinates": [ 106.883, -6.1 ] } },
{ "type": "Feature", "properties": { "category": "Oil Port", "title": "PALMA DE MALLORCA", "entity": "", "description": "", "comment": "", "capacity": "L", "link1": "", "link2": "", "link3": "", "source": "", "variable1": "", "variable2": "" }, "geometry": { "type": "Point", "coordinates": [ 2.633, 39.567 ] } },
{ "type": "Feature", "properties": { "category": "Oil Port", "title": "SANTA CRUZ DE TENERIFE", "entity": "", "description": "", "comment": "", "capacity": "L", "link1": "", "link2": "", "link3": "", "source": "", "variable1": "", "variable2": "" }, "geometry": { "type": "Point", "coordinates": [ -16.233, 28.467 ] } },
{ "type": "Feature", "properties": { "category": "Oil Port", "title": "HUELVA", "entity": "", "description": "", "comment": "", "capacity": "M", "link1": "", "link2": "", "link3": "", "source": "", "variable1": "", "variable2": "" }, "geometry": { "type": "Point", "coordinates": [ -6.95, 37.25 ] } },
{ "type": "Feature", "properties": { "category": "Oil Port", "title": "TOPOLOBAMPO", "entity": "", "description": "", "comment": "", "capacity": "L", "link1": "", "link2": "", "link3": "", "source": "", "variable1": "", "variable2": "" }, "geometry": { "type": "Point", "coordinates": [ -109.067, 25.6 ] } },
{ "type": "Feature", "properties": { "category": "Oil Port", "title": "TRAMANDAI", "entity": "", "description": "", "comment": "", "capacity": "L", "link1": "", "link2": "", "link3": "", "source": "", "variable1": "", "variable2": "" }, "geometry": { "type": "Point", "coordinates": [ -50.133, -29.983 ] } },
{ "type": "Feature", "properties": { "category": "Oil Port", "title": "PORT BOUET", "entity": "", "description": "", "comment": "", "capacity": "L", "link1": "", "link2": "", "link3": "", "source": "", "variable1": "", "variable2": "" }, "geometry": { "type": "Point", "coordinates": [ -3.967, 5.233 ] } },
{ "type": "Feature", "properties": { "category": "Oil Port", "title": "SALTPOND", "entity": "", "description": "", "comment": "", "capacity": "no information", "link1": "", "link2": "", "link3": "", "source": "", "variable1": "", "variable2": "" }, "geometry": { "type": "Point", "coordinates": [ -1.05, 5.2 ] } },
{ "type": "Feature", "properties": { "category": "Oil Port", "title": "TEMA", "entity": "", "description": "", "comment": "", "capacity": "M", "link1": "", "link2": "", "link3": "", "source": "", "variable1": "", "variable2": "" }, "geometry": { "type": "Point", "coordinates": [ 0.017, 5.617 ] } },
{ "type": "Feature", "properties": { "category": "Oil Port", "title": "LOME", "entity": "", "description": "", "comment": "", "capacity": "L", "link1": "", "link2": "", "link3": "", "source": "", "variable1": "", "variable2": "" }, "geometry": { "type": "Point", "coordinates": [ 1.283, 6.133 ] } },
{ "type": "Feature", "properties": { "category": "Oil Port", "title": "LAGOS", "entity": "", "description": "", "comment": "", "capacity": "L", "link1": "", "link2": "", "link3": "", "source": "", "variable1": "", "variable2": "" }, "geometry": { "type": "Point", "coordinates": [ 3.4, 6.4 ] } },
{ "type": "Feature", "properties": { "category": "Oil Port", "title": "ESCRAVOS OIL TERMINAL", "entity": "", "description": "", "comment": "", "capacity": "L", "link1": "", "link2": "", "link3": "", "source": "", "variable1": "", "variable2": "" }, "geometry": { "type": "Point", "coordinates": [ 5.0, 5.5 ] } },
{ "type": "Feature", "properties": { "category": "Oil Port", "title": "BRASS OIL TERMINAL", "entity": "", "description": "", "comment": "", "capacity": "L", "link1": "", "link2": "", "link3": "", "source": "", "variable1": "", "variable2": "" }, "geometry": { "type": "Point", "coordinates": [ 6.283, 4.067 ] } },
{ "type": "Feature", "properties": { "category": "Oil Port", "title": "TAZERKA OIL TERMINAL", "entity": "", "description": "", "comment": "", "capacity": "M", "link1": "", "link2": "", "link3": "", "source": "", "variable1": "", "variable2": "" }, "geometry": { "type": "Point", "coordinates": [ 11.683, 36.6 ] } },
{ "type": "Feature", "properties": { "category": "Oil Port", "title": "ALGECIRAS", "entity": "", "description": "", "comment": "", "capacity": "L", "link1": "", "link2": "", "link3": "", "source": "", "variable1": "", "variable2": "" }, "geometry": { "type": "Point", "coordinates": [ -5.433, 36.133 ] } },
{ "type": "Feature", "properties": { "category": "Oil Port", "title": "CARTAGENA", "entity": "", "description": "", "comment": "", "capacity": "L", "link1": "", "link2": "", "link3": "", "source": "", "variable1": "", "variable2": "" }, "geometry": { "type": "Point", "coordinates": [ -0.983, 37.583 ] } },
{ "type": "Feature", "properties": { "category": "Oil Port", "title": "EL GRAO", "entity": "", "description": "", "comment": "", "capacity": "M", "link1": "", "link2": "", "link3": "", "source": "", "variable1": "", "variable2": "" }, "geometry": { "type": "Point", "coordinates": [ 0.017, 39.967 ] } },
{ "type": "Feature", "properties": { "category": "Oil Port", "title": "TARRAGONA", "entity": "", "description": "", "comment": "", "capacity": "M", "link1": "", "link2": "", "link3": "", "source": "", "variable1": "", "variable2": "" }, "geometry": { "type": "Point", "coordinates": [ 1.233, 41.1 ] } },
{ "type": "Feature", "properties": { "category": "Oil Port", "title": "FUNCHAL", "entity": "", "description": "", "comment": "", "capacity": "L", "link1": "", "link2": "", "link3": "", "source": "", "variable1": "", "variable2": "" }, "geometry": { "type": "Point", "coordinates": [ -16.917, 32.633 ] } },
{ "type": "Feature", "properties": { "category": "Oil Port", "title": "PUERTO DE BILBAO", "entity": "", "description": "", "comment": "", "capacity": "L", "link1": "", "link2": "", "link3": "", "source": "", "variable1": "", "variable2": "" }, "geometry": { "type": "Point", "coordinates": [ -3.05, 43.35 ] } },
{ "type": "Feature", "properties": { "category": "Oil Port", "title": "SANTANDER", "entity": "", "description": "", "comment": "", "capacity": "L", "link1": "", "link2": "", "link3": "", "source": "", "variable1": "", "variable2": "" }, "geometry": { "type": "Point", "coordinates": [ -3.783, 43.467 ] } },
{ "type": "Feature", "properties": { "category": "Oil Port", "title": "PORTO DE SUAPE", "entity": "", "description": "", "comment": "", "capacity": "L", "link1": "", "link2": "", "link3": "", "source": "", "variable1": "", "variable2": "" }, "geometry": { "type": "Point", "coordinates": [ -34.967, -8.4 ] } },
{ "type": "Feature", "properties": { "category": "Oil Port", "title": "TUBAN", "entity": "", "description": "", "comment": "", "capacity": "no information", "link1": "", "link2": "", "link3": "", "source": "", "variable1": "", "variable2": "" }, "geometry": { "type": "Point", "coordinates": [ 112.15, -6.733 ] } },
{ "type": "Feature", "properties": { "category": "Oil Port", "title": "PANARUKAN", "entity": "", "description": "", "comment": "", "capacity": "no information", "link1": "", "link2": "", "link3": "", "source": "", "variable1": "", "variable2": "" }, "geometry": { "type": "Point", "coordinates": [ 113.933, -7.7 ] } },
{ "type": "Feature", "properties": { "category": "Oil Port", "title": "PORTLAND", "entity": "", "description": "", "comment": "", "capacity": "L", "link1": "", "link2": "", "link3": "", "source": "", "variable1": "", "variable2": "" }, "geometry": { "type": "Point", "coordinates": [ -70.25, 43.667 ] } },
{ "type": "Feature", "properties": { "category": "Oil Port", "title": "HALIFAX", "entity": "", "description": "", "comment": "", "capacity": "L", "link1": "", "link2": "", "link3": "", "source": "", "variable1": "", "variable2": "" }, "geometry": { "type": "Point", "coordinates": [ -63.583, 44.65 ] } },
{ "type": "Feature", "properties": { "category": "Oil Port", "title": "ST JOHN", "entity": "", "description": "", "comment": "", "capacity": "L", "link1": "", "link2": "", "link3": "", "source": "", "variable1": "", "variable2": "" }, "geometry": { "type": "Point", "coordinates": [ -66.05, 45.267 ] } },
{ "type": "Feature", "properties": { "category": "Oil Port", "title": "RABIGH", "entity": "", "description": "", "comment": "", "capacity": "M", "link1": "", "link2": "", "link3": "", "source": "", "variable1": "", "variable2": "" }, "geometry": { "type": "Point", "coordinates": [ 38.983, 22.733 ] } },
{ "type": "Feature", "properties": { "category": "Oil Port", "title": "RAS LAFFAN", "entity": "", "description": "", "comment": "", "capacity": "M", "link1": "", "link2": "", "link3": "", "source": "", "variable1": "", "variable2": "" }, "geometry": { "type": "Point", "coordinates": [ 51.583, 25.917 ] } },
{ "type": "Feature", "properties": { "category": "Oil Port", "title": "TANJUNGPANDAN", "entity": "", "description": "", "comment": "", "capacity": "M", "link1": "", "link2": "", "link3": "", "source": "", "variable1": "", "variable2": "" }, "geometry": { "type": "Point", "coordinates": [ 107.633, -2.75 ] } },
{ "type": "Feature", "properties": { "category": "Oil Port", "title": "BATANGAS CITY", "entity": "", "description": "", "comment": "", "capacity": "L", "link1": "", "link2": "", "link3": "", "source": "", "variable1": "", "variable2": "" }, "geometry": { "type": "Point", "coordinates": [ 121.05, 13.75 ] } },
{ "type": "Feature", "properties": { "category": "Oil Port", "title": "MARIVELES", "entity": "", "description": "", "comment": "", "capacity": "M", "link1": "", "link2": "", "link3": "", "source": "", "variable1": "", "variable2": "" }, "geometry": { "type": "Point", "coordinates": [ 120.483, 14.433 ] } },
{ "type": "Feature", "properties": { "category": "Oil Port", "title": "SAN FERNANDO HARBOR", "entity": "", "description": "", "comment": "", "capacity": "M", "link1": "", "link2": "", "link3": "", "source": "", "variable1": "", "variable2": "" }, "geometry": { "type": "Point", "coordinates": [ 120.317, 16.617 ] } },
{ "type": "Feature", "properties": { "category": "Oil Port", "title": "LON SHUI TERMINAL", "entity": "", "description": "", "comment": "", "capacity": "M", "link1": "", "link2": "", "link3": "", "source": "", "variable1": "", "variable2": "" }, "geometry": { "type": "Point", "coordinates": [ 115.683, 20.833 ] } },
{ "type": "Feature", "properties": { "category": "Oil Port", "title": "ARZEW", "entity": "", "description": "", "comment": "", "capacity": "M", "link1": "", "link2": "", "link3": "", "source": "", "variable1": "", "variable2": "" }, "geometry": { "type": "Point", "coordinates": [ -0.3, 35.85 ] } },
{ "type": "Feature", "properties": { "category": "Oil Port", "title": "ARZEW EL DJEDID", "entity": "", "description": "", "comment": "", "capacity": "M", "link1": "", "link2": "", "link3": "", "source": "", "variable1": "", "variable2": "" }, "geometry": { "type": "Point", "coordinates": [ -0.25, 35.817 ] } },
{ "type": "Feature", "properties": { "category": "Oil Port", "title": "PULAU BUKOM", "entity": "", "description": "", "comment": "", "capacity": "L", "link1": "", "link2": "", "link3": "", "source": "", "variable1": "", "variable2": "" }, "geometry": { "type": "Point", "coordinates": [ 103.767, 1.233 ] } },
{ "type": "Feature", "properties": { "category": "Oil Port", "title": "PULAU SEBAROK", "entity": "", "description": "", "comment": "", "capacity": "L", "link1": "", "link2": "", "link3": "", "source": "", "variable1": "", "variable2": "" }, "geometry": { "type": "Point", "coordinates": [ 103.8, 1.2 ] } },
{ "type": "Feature", "properties": { "category": "Oil Port", "title": "TANJUNGUBAN", "entity": "", "description": "", "comment": "", "capacity": "L", "link1": "", "link2": "", "link3": "", "source": "", "variable1": "", "variable2": "" }, "geometry": { "type": "Point", "coordinates": [ 104.217, 1.067 ] } },
{ "type": "Feature", "properties": { "category": "Oil Port", "title": "CINTA OIL TERMINAL", "entity": "", "description": "", "comment": "", "capacity": "M", "link1": "", "link2": "", "link3": "", "source": "", "variable1": "", "variable2": "" }, "geometry": { "type": "Point", "coordinates": [ 106.233, -5.5 ] } },
{ "type": "Feature", "properties": { "category": "Oil Port", "title": "LA CORUNA", "entity": "", "description": "", "comment": "", "capacity": "L", "link1": "", "link2": "", "link3": "", "source": "", "variable1": "", "variable2": "" }, "geometry": { "type": "Point", "coordinates": [ -8.4, 43.367 ] } },
{ "type": "Feature", "properties": { "category": "Oil Port", "title": "BROFJORDEN", "entity": "", "description": "", "comment": "", "capacity": "M", "link1": "", "link2": "", "link3": "", "source": "", "variable1": "", "variable2": "" }, "geometry": { "type": "Point", "coordinates": [ 11.417, 58.383 ] } },
{ "type": "Feature", "properties": { "category": "Oil Port", "title": "NEW MANGALORE", "entity": "", "description": "", "comment": "", "capacity": "L", "link1": "", "link2": "", "link3": "", "source": "", "variable1": "", "variable2": "" }, "geometry": { "type": "Point", "coordinates": [ 74.817, 12.917 ] } },
{ "type": "Feature", "properties": { "category": "Oil Port", "title": "KAMARAJAR PORT", "entity": "", "description": "", "comment": "", "capacity": "M", "link1": "", "link2": "", "link3": "", "source": "", "variable1": "", "variable2": "" }, "geometry": { "type": "Point", "coordinates": [ 80.317, 13.267 ] } },
{ "type": "Feature", "properties": { "category": "Oil Port", "title": "SIKKA", "entity": "", "description": "", "comment": "", "capacity": "L", "link1": "", "link2": "", "link3": "", "source": "", "variable1": "", "variable2": "" }, "geometry": { "type": "Point", "coordinates": [ 69.833, 22.433 ] } },
{ "type": "Feature", "properties": { "category": "Oil Port", "title": "MUNDRA", "entity": "", "description": "", "comment": "", "capacity": "L", "link1": "", "link2": "", "link3": "", "source": "", "variable1": "", "variable2": "" }, "geometry": { "type": "Point", "coordinates": [ 69.7, 22.733 ] } },
{ "type": "Feature", "properties": { "category": "Oil Port", "title": "DAHEJ", "entity": "", "description": "", "comment": "", "capacity": "L", "link1": "", "link2": "", "link3": "", "source": "", "variable1": "", "variable2": "" }, "geometry": { "type": "Point", "coordinates": [ 72.533, 21.7 ] } },
{ "type": "Feature", "properties": { "category": "Oil Port", "title": "JABUNG BATANGHARI MARINE TERMINAL", "entity": "", "description": "", "comment": "", "capacity": "M", "link1": "", "link2": "", "link3": "", "source": "", "variable1": "", "variable2": "" }, "geometry": { "type": "Point", "coordinates": [ 104.067, -0.917 ] } },
{ "type": "Feature", "properties": { "category": "Oil Port", "title": "LALANG MARINE TERMINAL", "entity": "", "description": "", "comment": "", "capacity": "no information", "link1": "", "link2": "", "link3": "", "source": "", "variable1": "", "variable2": "" }, "geometry": { "type": "Point", "coordinates": [ 102.217, 1.183 ] } },
{ "type": "Feature", "properties": { "category": "Oil Port", "title": "BELANAK FIELD TERMINAL", "entity": "", "description": "", "comment": "", "capacity": "no information", "link1": "", "link2": "", "link3": "", "source": "", "variable1": "", "variable2": "" }, "geometry": { "type": "Point", "coordinates": [ 106.25, 4.15 ] } },
{ "type": "Feature", "properties": { "category": "Oil Port", "title": "BELIDA MARINE TERMINAL", "entity": "", "description": "", "comment": "", "capacity": "L", "link1": "", "link2": "", "link3": "", "source": "", "variable1": "", "variable2": "" }, "geometry": { "type": "Point", "coordinates": [ 105.133, 4.133 ] } },
{ "type": "Feature", "properties": { "category": "Oil Port", "title": "ZAFARANA TERMINAL", "entity": "", "description": "", "comment": "", "capacity": "M", "link1": "", "link2": "", "link3": "", "source": "", "variable1": "", "variable2": "" }, "geometry": { "type": "Point", "coordinates": [ 32.683, 29.167 ] } },
{ "type": "Feature", "properties": { "category": "Oil Port", "title": "DORALEH", "entity": "", "description": "", "comment": "", "capacity": "L", "link1": "", "link2": "", "link3": "", "source": "", "variable1": "", "variable2": "" }, "geometry": { "type": "Point", "coordinates": [ 43.083, 11.6 ] } },
{ "type": "Feature", "properties": { "category": "Oil Port", "title": "AL KHAIR OIL TERMINAL", "entity": "", "description": "", "comment": "", "capacity": "no information", "link1": "", "link2": "", "link3": "", "source": "", "variable1": "", "variable2": "" }, "geometry": { "type": "Point", "coordinates": [ 37.25, 19.583 ] } },
{ "type": "Feature", "properties": { "category": "Oil Port", "title": "BESHAYER OIL TERMINAL", "entity": "", "description": "", "comment": "", "capacity": "no information", "link1": "", "link2": "", "link3": "", "source": "", "variable1": "", "variable2": "" }, "geometry": { "type": "Point", "coordinates": [ 37.317, 19.4 ] } },
{ "type": "Feature", "properties": { "category": "Oil Port", "title": "SHARJAH OFFSHORE TERMINAL", "entity": "", "description": "", "comment": "", "capacity": "L", "link1": "", "link2": "", "link3": "", "source": "", "variable1": "", "variable2": "" }, "geometry": { "type": "Point", "coordinates": [ 55.4, 25.583 ] } },
{ "type": "Feature", "properties": { "category": "Oil Port", "title": "ZIRKUH PETROLEUM PORT", "entity": "", "description": "", "comment": "", "capacity": "no information", "link1": "", "link2": "", "link3": "", "source": "", "variable1": "", "variable2": "" }, "geometry": { "type": "Point", "coordinates": [ 53.0, 25.017 ] } },
{ "type": "Feature", "properties": { "category": "Oil Port", "title": "CANAPORT (ST. JOHN)", "entity": "", "description": "", "comment": "", "capacity": "L", "link1": "", "link2": "", "link3": "", "source": "", "variable1": "", "variable2": "" }, "geometry": { "type": "Point", "coordinates": [ -65.983, 45.2 ] } },
{ "type": "Feature", "properties": { "category": "Oil Port", "title": "DAI HANG", "entity": "", "description": "", "comment": "", "capacity": "M", "link1": "", "link2": "", "link3": "", "source": "", "variable1": "", "variable2": "" }, "geometry": { "type": "Point", "coordinates": [ 108.683, 8.483 ] } },
{ "type": "Feature", "properties": { "category": "Oil Port", "title": "PHU MY", "entity": "", "description": "", "comment": "", "capacity": "M", "link1": "", "link2": "", "link3": "", "source": "", "variable1": "", "variable2": "" }, "geometry": { "type": "Point", "coordinates": [ 107.033, 10.583 ] } },
{ "type": "Feature", "properties": { "category": "Oil Port", "title": "MOHAMMEDIA", "entity": "", "description": "", "comment": "", "capacity": "L", "link1": "", "link2": "", "link3": "", "source": "", "variable1": "", "variable2": "" }, "geometry": { "type": "Point", "coordinates": [ -7.4, 33.717 ] } },
{ "type": "Feature", "properties": { "category": "Oil Port", "title": "BOTAS", "entity": "", "description": "", "comment": "", "capacity": "L", "link1": "", "link2": "", "link3": "", "source": "", "variable1": "", "variable2": "" }, "geometry": { "type": "Point", "coordinates": [ 35.933, 36.883 ] } },
{ "type": "Feature", "properties": { "category": "Oil Port", "title": "LIMASSOL", "entity": "", "description": "", "comment": "", "capacity": "M", "link1": "", "link2": "", "link3": "", "source": "", "variable1": "", "variable2": "" }, "geometry": { "type": "Point", "coordinates": [ 33.05, 34.667 ] } },
{ "type": "Feature", "properties": { "category": "Oil Port", "title": "LARNACA", "entity": "", "description": "", "comment": "", "capacity": "M", "link1": "", "link2": "", "link3": "", "source": "", "variable1": "", "variable2": "" }, "geometry": { "type": "Point", "coordinates": [ 33.65, 34.917 ] } },
{ "type": "Feature", "properties": { "category": "Oil Port", "title": "DHEKELIA", "entity": "", "description": "", "comment": "", "capacity": "M", "link1": "", "link2": "", "link3": "", "source": "", "variable1": "", "variable2": "" }, "geometry": { "type": "Point", "coordinates": [ 33.717, 34.967 ] } },
{ "type": "Feature", "properties": { "category": "Oil Port", "title": "TARTUS", "entity": "", "description": "", "comment": "", "capacity": "M", "link1": "", "link2": "", "link3": "", "source": "", "variable1": "", "variable2": "" }, "geometry": { "type": "Point", "coordinates": [ 35.867, 34.9 ] } },
{ "type": "Feature", "properties": { "category": "Oil Port", "title": "BANIYAS", "entity": "", "description": "", "comment": "", "capacity": "M", "link1": "", "link2": "", "link3": "", "source": "", "variable1": "", "variable2": "" }, "geometry": { "type": "Point", "coordinates": [ 35.95, 35.183 ] } },
{ "type": "Feature", "properties": { "category": "Oil Port", "title": "HONG KONG", "entity": "", "description": "", "comment": "", "capacity": "M", "link1": "", "link2": "", "link3": "", "source": "", "variable1": "", "variable2": "" }, "geometry": { "type": "Point", "coordinates": [ 114.2, 22.267 ] } },
{ "type": "Feature", "properties": { "category": "Oil Port", "title": "XIAMEN", "entity": "", "description": "", "comment": "", "capacity": "M", "link1": "", "link2": "", "link3": "", "source": "", "variable1": "", "variable2": "" }, "geometry": { "type": "Point", "coordinates": [ 118.067, 24.45 ] } },
{ "type": "Feature", "properties": { "category": "Oil Port", "title": "TAI-CHUNG KANG", "entity": "", "description": "", "comment": "", "capacity": "M", "link1": "", "link2": "", "link3": "", "source": "", "variable1": "", "variable2": "" }, "geometry": { "type": "Point", "coordinates": [ 120.5, 24.3 ] } },
{ "type": "Feature", "properties": { "category": "Oil Port", "title": "PORTO DE LEIXOES", "entity": "", "description": "", "comment": "", "capacity": "L", "link1": "", "link2": "", "link3": "", "source": "", "variable1": "", "variable2": "" }, "geometry": { "type": "Point", "coordinates": [ -8.7, 41.183 ] } },
{ "type": "Feature", "properties": { "category": "Oil Port", "title": "SINES", "entity": "", "description": "", "comment": "", "capacity": "M", "link1": "", "link2": "", "link3": "", "source": "", "variable1": "", "variable2": "" }, "geometry": { "type": "Point", "coordinates": [ -8.867, 37.95 ] } },
{ "type": "Feature", "properties": { "category": "Oil Port", "title": "DONGES", "entity": "", "description": "", "comment": "", "capacity": "L", "link1": "", "link2": "", "link3": "", "source": "", "variable1": "", "variable2": "" }, "geometry": { "type": "Point", "coordinates": [ -2.067, 47.3 ] } },
{ "type": "Feature", "properties": { "category": "Oil Port", "title": "LA PALLICE", "entity": "", "description": "", "comment": "", "capacity": "L", "link1": "", "link2": "", "link3": "", "source": "", "variable1": "", "variable2": "" }, "geometry": { "type": "Point", "coordinates": [ -1.217, 46.167 ] } },
{ "type": "Feature", "properties": { "category": "Oil Port", "title": "LE VERDON", "entity": "", "description": "", "comment": "", "capacity": "L", "link1": "", "link2": "", "link3": "", "source": "", "variable1": "", "variable2": "" }, "geometry": { "type": "Point", "coordinates": [ -1.05, 45.55 ] } },
{ "type": "Feature", "properties": { "category": "Oil Port", "title": "AIN SUKHNA TERMINAL", "entity": "", "description": "", "comment": "", "capacity": "L", "link1": "", "link2": "", "link3": "", "source": "", "variable1": "", "variable2": "" }, "geometry": { "type": "Point", "coordinates": [ 32.367, 29.583 ] } },
{ "type": "Feature", "properties": { "category": "Oil Port", "title": "KING FAHD PORT", "entity": "", "description": "", "comment": "", "capacity": "M", "link1": "", "link2": "", "link3": "", "source": "", "variable1": "", "variable2": "" }, "geometry": { "type": "Point", "coordinates": [ 38.217, 23.95 ] } },
{ "type": "Feature", "properties": { "category": "Oil Port", "title": "ARDJUNA OIL FIELD", "entity": "", "description": "", "comment": "", "capacity": "M", "link1": "", "link2": "", "link3": "", "source": "", "variable1": "", "variable2": "" }, "geometry": { "type": "Point", "coordinates": [ 107.717, -5.883 ] } },
{ "type": "Feature", "properties": { "category": "Oil Port", "title": "ROTTERDAM", "entity": "", "description": "", "comment": "", "capacity": "L", "link1": "", "link2": "", "link3": "", "source": "", "variable1": "", "variable2": "" }, "geometry": { "type": "Point", "coordinates": [ 4.483, 51.9 ] } },
{ "type": "Feature", "properties": { "category": "Oil Port", "title": "BRUNSBUTTEL ELBAHAFEN", "entity": "", "description": "", "comment": "", "capacity": "L", "link1": "", "link2": "", "link3": "", "source": "", "variable1": "", "variable2": "" }, "geometry": { "type": "Point", "coordinates": [ 9.167, 53.883 ] } },
{ "type": "Feature", "properties": { "category": "Oil Port", "title": "ROSARITO", "entity": "", "description": "", "comment": "", "capacity": "L", "link1": "", "link2": "", "link3": "", "source": "", "variable1": "", "variable2": "" }, "geometry": { "type": "Point", "coordinates": [ -117.1, 32.367 ] } },
{ "type": "Feature", "properties": { "category": "Oil Port", "title": "QUEBEC", "entity": "", "description": "", "comment": "", "capacity": "L", "link1": "", "link2": "", "link3": "", "source": "", "variable1": "", "variable2": "" }, "geometry": { "type": "Point", "coordinates": [ -71.217, 46.817 ] } },
{ "type": "Feature", "properties": { "category": "Oil Port", "title": "TAPIS MARINE TERMINAL A", "entity": "", "description": "", "comment": "", "capacity": "L", "link1": "", "link2": "", "link3": "", "source": "", "variable1": "", "variable2": "" }, "geometry": { "type": "Point", "coordinates": [ 105.017, 5.517 ] } },
{ "type": "Feature", "properties": { "category": "Oil Port", "title": "SI RACHA TERMINAL", "entity": "", "description": "", "comment": "", "capacity": "M", "link1": "", "link2": "", "link3": "", "source": "", "variable1": "", "variable2": "" }, "geometry": { "type": "Point", "coordinates": [ 100.883, 13.117 ] } },
{ "type": "Feature", "properties": { "category": "Oil Port", "title": "KO SI CHANG TERMINAL", "entity": "", "description": "", "comment": "", "capacity": "M", "link1": "", "link2": "", "link3": "", "source": "", "variable1": "", "variable2": "" }, "geometry": { "type": "Point", "coordinates": [ 100.817, 13.167 ] } },
{ "type": "Feature", "properties": { "category": "Oil Port", "title": "THANH HO CHI MINH", "entity": "", "description": "", "comment": "", "capacity": "L", "link1": "", "link2": "", "link3": "", "source": "", "variable1": "", "variable2": "" }, "geometry": { "type": "Point", "coordinates": [ 106.717, 10.767 ] } },
{ "type": "Feature", "properties": { "category": "Oil Port", "title": "TARABULUS", "entity": "", "description": "", "comment": "", "capacity": "M", "link1": "", "link2": "", "link3": "", "source": "", "variable1": "", "variable2": "" }, "geometry": { "type": "Point", "coordinates": [ 35.833, 34.45 ] } },
{ "type": "Feature", "properties": { "category": "Oil Port", "title": "ASHDOD", "entity": "", "description": "", "comment": "", "capacity": "M", "link1": "", "link2": "", "link3": "", "source": "", "variable1": "", "variable2": "" }, "geometry": { "type": "Point", "coordinates": [ 34.65, 31.817 ] } },
{ "type": "Feature", "properties": { "category": "Oil Port", "title": "AL BURAYQAH", "entity": "", "description": "", "comment": "", "capacity": "M", "link1": "", "link2": "", "link3": "", "source": "", "variable1": "", "variable2": "" }, "geometry": { "type": "Point", "coordinates": [ 19.6, 30.417 ] } },
{ "type": "Feature", "properties": { "category": "Oil Port", "title": "RAS   LANUF", "entity": "", "description": "", "comment": "", "capacity": "M", "link1": "", "link2": "", "link3": "", "source": "", "variable1": "", "variable2": "" }, "geometry": { "type": "Point", "coordinates": [ 18.567, 30.517 ] } },
{ "type": "Feature", "properties": { "category": "Oil Port", "title": "AS SIDR", "entity": "", "description": "", "comment": "", "capacity": "L", "link1": "", "link2": "", "link3": "", "source": "", "variable1": "", "variable2": "" }, "geometry": { "type": "Point", "coordinates": [ 18.367, 30.633 ] } },
{ "type": "Feature", "properties": { "category": "Oil Port", "title": "PIPAVAV BANDAR", "entity": "", "description": "", "comment": "", "capacity": "L", "link1": "", "link2": "", "link3": "", "source": "", "variable1": "", "variable2": "" }, "geometry": { "type": "Point", "coordinates": [ 71.517, 20.917 ] } },
{ "type": "Feature", "properties": { "category": "Oil Port", "title": "LHOKSEUMAWE", "entity": "", "description": "", "comment": "", "capacity": "L", "link1": "", "link2": "", "link3": "", "source": "", "variable1": "", "variable2": "" }, "geometry": { "type": "Point", "coordinates": [ 97.117, 5.25 ] } },
{ "type": "Feature", "properties": { "category": "Oil Port", "title": "PANGKALANSUSU", "entity": "", "description": "", "comment": "", "capacity": "L", "link1": "", "link2": "", "link3": "", "source": "", "variable1": "", "variable2": "" }, "geometry": { "type": "Point", "coordinates": [ 98.217, 4.117 ] } },
{ "type": "Feature", "properties": { "category": "Oil Port", "title": "DUMAI", "entity": "", "description": "", "comment": "", "capacity": "L", "link1": "", "link2": "", "link3": "", "source": "", "variable1": "", "variable2": "" }, "geometry": { "type": "Point", "coordinates": [ 101.45, 1.683 ] } },
{ "type": "Feature", "properties": { "category": "Oil Port", "title": "TRINCOMALEE HARBOR", "entity": "", "description": "", "comment": "", "capacity": "L", "link1": "", "link2": "", "link3": "", "source": "", "variable1": "", "variable2": "" }, "geometry": { "type": "Point", "coordinates": [ 81.217, 8.55 ] } },
{ "type": "Feature", "properties": { "category": "Oil Port", "title": "CHENNAI (MADRAS)", "entity": "", "description": "", "comment": "", "capacity": "M", "link1": "", "link2": "", "link3": "", "source": "", "variable1": "", "variable2": "" }, "geometry": { "type": "Point", "coordinates": [ 80.3, 13.1 ] } },
{ "type": "Feature", "properties": { "category": "Oil Port", "title": "MACHILIPATNAM", "entity": "", "description": "", "comment": "", "capacity": "M", "link1": "", "link2": "", "link3": "", "source": "", "variable1": "", "variable2": "" }, "geometry": { "type": "Point", "coordinates": [ 81.167, 16.15 ] } },
{ "type": "Feature", "properties": { "category": "Oil Port", "title": "PARADIP", "entity": "", "description": "", "comment": "", "capacity": "M", "link1": "", "link2": "", "link3": "", "source": "", "variable1": "", "variable2": "" }, "geometry": { "type": "Point", "coordinates": [ 86.683, 20.267 ] } },
{ "type": "Feature", "properties": { "category": "Oil Port", "title": "LONG BEACH", "entity": "", "description": "", "comment": "", "capacity": "L", "link1": "", "link2": "", "link3": "", "source": "", "variable1": "", "variable2": "" }, "geometry": { "type": "Point", "coordinates": [ -118.183, 33.767 ] } },
{ "type": "Feature", "properties": { "category": "Oil Port", "title": "LOS ANGELES", "entity": "", "description": "", "comment": "", "capacity": "L", "link1": "", "link2": "", "link3": "", "source": "", "variable1": "", "variable2": "" }, "geometry": { "type": "Point", "coordinates": [ -118.25, 33.75 ] } },
{ "type": "Feature", "properties": { "category": "Oil Port", "title": "EL SEGUNDO", "entity": "", "description": "", "comment": "", "capacity": "L", "link1": "", "link2": "", "link3": "", "source": "", "variable1": "", "variable2": "" }, "geometry": { "type": "Point", "coordinates": [ -118.433, 33.917 ] } },
{ "type": "Feature", "properties": { "category": "Oil Port", "title": "CARPINTERIA", "entity": "", "description": "", "comment": "", "capacity": "L", "link1": "", "link2": "", "link3": "", "source": "", "variable1": "", "variable2": "" }, "geometry": { "type": "Point", "coordinates": [ -119.517, 34.383 ] } },
{ "type": "Feature", "properties": { "category": "Oil Port", "title": "ELLWOOD", "entity": "", "description": "", "comment": "", "capacity": "no information", "link1": "", "link2": "", "link3": "", "source": "", "variable1": "", "variable2": "" }, "geometry": { "type": "Point", "coordinates": [ -119.917, 34.433 ] } },
{ "type": "Feature", "properties": { "category": "Oil Port", "title": "GAVIOTA", "entity": "", "description": "", "comment": "", "capacity": "no information", "link1": "", "link2": "", "link3": "", "source": "", "variable1": "", "variable2": "" }, "geometry": { "type": "Point", "coordinates": [ -120.2, 34.467 ] } },
{ "type": "Feature", "properties": { "category": "Oil Port", "title": "MOSS LANDING", "entity": "", "description": "", "comment": "", "capacity": "no information", "link1": "", "link2": "", "link3": "", "source": "", "variable1": "", "variable2": "" }, "geometry": { "type": "Point", "coordinates": [ -121.783, 36.8 ] } },
{ "type": "Feature", "properties": { "category": "Oil Port", "title": "DAVENPORT", "entity": "", "description": "", "comment": "", "capacity": "no information", "link1": "", "link2": "", "link3": "", "source": "", "variable1": "", "variable2": "" }, "geometry": { "type": "Point", "coordinates": [ -122.2, 37.017 ] } },
{ "type": "Feature", "properties": { "category": "Oil Port", "title": "LAZARO CARDENAS", "entity": "", "description": "", "comment": "", "capacity": "L", "link1": "", "link2": "", "link3": "", "source": "", "variable1": "", "variable2": "" }, "geometry": { "type": "Point", "coordinates": [ -102.167, 17.933 ] } },
{ "type": "Feature", "properties": { "category": "Oil Port", "title": "MANZANILLO", "entity": "", "description": "", "comment": "", "capacity": "L", "link1": "", "link2": "", "link3": "", "source": "", "variable1": "", "variable2": "" }, "geometry": { "type": "Point", "coordinates": [ -104.317, 19.05 ] } },
{ "type": "Feature", "properties": { "category": "Oil Port", "title": "PUERTO CABO BLANCO", "entity": "", "description": "", "comment": "", "capacity": "L", "link1": "", "link2": "", "link3": "", "source": "", "variable1": "", "variable2": "" }, "geometry": { "type": "Point", "coordinates": [ -81.233, -4.25 ] } },
{ "type": "Feature", "properties": { "category": "Oil Port", "title": "TUMACO", "entity": "", "description": "", "comment": "", "capacity": "L", "link1": "", "link2": "", "link3": "", "source": "", "variable1": "", "variable2": "" }, "geometry": { "type": "Point", "coordinates": [ -78.75, 1.817 ] } },
{ "type": "Feature", "properties": { "category": "Oil Port", "title": "MADRE DE DEUS", "entity": "", "description": "", "comment": "", "capacity": "L", "link1": "", "link2": "", "link3": "", "source": "", "variable1": "", "variable2": "" }, "geometry": { "type": "Point", "coordinates": [ -38.617, -12.75 ] } },
{ "type": "Feature", "properties": { "category": "Oil Port", "title": "SAO SEBASTIAO", "entity": "", "description": "", "comment": "", "capacity": "L", "link1": "", "link2": "", "link3": "", "source": "", "variable1": "", "variable2": "" }, "geometry": { "type": "Point", "coordinates": [ -45.4, -23.8 ] } },
{ "type": "Feature", "properties": { "category": "Oil Port", "title": "AZ ZAWIYA", "entity": "", "description": "", "comment": "", "capacity": "L", "link1": "", "link2": "", "link3": "", "source": "", "variable1": "", "variable2": "" }, "geometry": { "type": "Point", "coordinates": [ 12.717, 32.8 ] } },
{ "type": "Feature", "properties": { "category": "Oil Port", "title": "SKHIRA", "entity": "", "description": "", "comment": "", "capacity": "L", "link1": "", "link2": "", "link3": "", "source": "", "variable1": "", "variable2": "" }, "geometry": { "type": "Point", "coordinates": [ 10.1, 34.283 ] } },
{ "type": "Feature", "properties": { "category": "Oil Port", "title": "ANTALYA", "entity": "", "description": "", "comment": "", "capacity": "L", "link1": "", "link2": "", "link3": "", "source": "", "variable1": "", "variable2": "" }, "geometry": { "type": "Point", "coordinates": [ 30.617, 36.833 ] } },
{ "type": "Feature", "properties": { "category": "Oil Port", "title": "TRABZON", "entity": "", "description": "", "comment": "", "capacity": "L", "link1": "", "link2": "", "link3": "", "source": "", "variable1": "", "variable2": "" }, "geometry": { "type": "Point", "coordinates": [ 39.767, 41.017 ] } },
{ "type": "Feature", "properties": { "category": "Oil Port", "title": "VINH CAM RANH", "entity": "", "description": "", "comment": "", "capacity": "L", "link1": "", "link2": "", "link3": "", "source": "", "variable1": "", "variable2": "" }, "geometry": { "type": "Point", "coordinates": [ 109.167, 11.883 ] } },
{ "type": "Feature", "properties": { "category": "Oil Port", "title": "DA NANG", "entity": "", "description": "", "comment": "", "capacity": "M", "link1": "", "link2": "", "link3": "", "source": "", "variable1": "", "variable2": "" }, "geometry": { "type": "Point", "coordinates": [ 108.217, 16.1 ] } },
{ "type": "Feature", "properties": { "category": "Oil Port", "title": "PORT KLANG", "entity": "", "description": "", "comment": "", "capacity": "L", "link1": "", "link2": "", "link3": "", "source": "", "variable1": "", "variable2": "" }, "geometry": { "type": "Point", "coordinates": [ 101.4, 3.0 ] } },
{ "type": "Feature", "properties": { "category": "Oil Port", "title": "PORT DICKSON", "entity": "", "description": "", "comment": "", "capacity": "L", "link1": "", "link2": "", "link3": "", "source": "", "variable1": "", "variable2": "" }, "geometry": { "type": "Point", "coordinates": [ 101.783, 2.533 ] } },
{ "type": "Feature", "properties": { "category": "Oil Port", "title": "SOUTHAMPTON", "entity": "", "description": "", "comment": "", "capacity": "L", "link1": "", "link2": "", "link3": "", "source": "", "variable1": "", "variable2": "" }, "geometry": { "type": "Point", "coordinates": [ -1.4, 50.9 ] } },
{ "type": "Feature", "properties": { "category": "Oil Port", "title": "DUNKERQUE PORT EST", "entity": "", "description": "", "comment": "", "capacity": "L", "link1": "", "link2": "", "link3": "", "source": "", "variable1": "", "variable2": "" }, "geometry": { "type": "Point", "coordinates": [ 2.383, 51.05 ] } },
{ "type": "Feature", "properties": { "category": "Oil Port", "title": "PORT HAWKESBURY", "entity": "", "description": "", "comment": "", "capacity": "L", "link1": "", "link2": "", "link3": "", "source": "", "variable1": "", "variable2": "" }, "geometry": { "type": "Point", "coordinates": [ -61.367, 45.617 ] } },
{ "type": "Feature", "properties": { "category": "Oil Port", "title": "EAST ZEIT TERMINAL", "entity": "", "description": "", "comment": "", "capacity": "M", "link1": "", "link2": "", "link3": "", "source": "", "variable1": "", "variable2": "" }, "geometry": { "type": "Point", "coordinates": [ 33.6, 27.85 ] } },
{ "type": "Feature", "properties": { "category": "Oil Port", "title": "DUBA BULK PLANT TANKER TERMINAL", "entity": "", "description": "", "comment": "", "capacity": "M", "link1": "", "link2": "", "link3": "", "source": "", "variable1": "", "variable2": "" }, "geometry": { "type": "Point", "coordinates": [ 35.9, 27.317 ] } },
{ "type": "Feature", "properties": { "category": "Oil Port", "title": "VITAZ MARINE TERMINAL", "entity": "", "description": "", "comment": "", "capacity": "no information", "link1": "", "link2": "", "link3": "", "source": "", "variable1": "", "variable2": "" }, "geometry": { "type": "Point", "coordinates": [ 143.55, 52.7 ] } },
{ "type": "Feature", "properties": { "category": "Oil Port", "title": "OXELOSUND", "entity": "", "description": "", "comment": "", "capacity": "M", "link1": "", "link2": "", "link3": "", "source": "", "variable1": "", "variable2": "" }, "geometry": { "type": "Point", "coordinates": [ 17.117, 58.667 ] } },
{ "type": "Feature", "properties": { "category": "Oil Port", "title": "PUNTA DE PALMAS", "entity": "", "description": "", "comment": "", "capacity": "L", "link1": "", "link2": "", "link3": "", "source": "", "variable1": "", "variable2": "" }, "geometry": { "type": "Point", "coordinates": [ -71.583, 10.783 ] } },
{ "type": "Feature", "properties": { "category": "Oil Port", "title": "BAJO GRANDE", "entity": "", "description": "", "comment": "", "capacity": "L", "link1": "", "link2": "", "link3": "", "source": "", "variable1": "", "variable2": "" }, "geometry": { "type": "Point", "coordinates": [ -71.633, 10.517 ] } },
{ "type": "Feature", "properties": { "category": "Oil Port", "title": "PUNTA CARDON", "entity": "", "description": "", "comment": "", "capacity": "L", "link1": "", "link2": "", "link3": "", "source": "", "variable1": "", "variable2": "" }, "geometry": { "type": "Point", "coordinates": [ -70.233, 11.633 ] } },
{ "type": "Feature", "properties": { "category": "Oil Port", "title": "WAKE ISLAND", "entity": "", "description": "", "comment": "", "capacity": "L", "link1": "", "link2": "", "link3": "", "source": "", "variable1": "", "variable2": "" }, "geometry": { "type": "Point", "coordinates": [ 166.617, 19.283 ] } },
{ "type": "Feature", "properties": { "category": "Oil Port", "title": "NAURU", "entity": "", "description": "", "comment": "", "capacity": "M", "link1": "", "link2": "", "link3": "", "source": "", "variable1": "", "variable2": "" }, "geometry": { "type": "Point", "coordinates": [ 166.917, -0.533 ] } },
{ "type": "Feature", "properties": { "category": "Oil Port", "title": "APRA HARBOR", "entity": "", "description": "", "comment": "", "capacity": "M", "link1": "", "link2": "", "link3": "", "source": "", "variable1": "", "variable2": "" }, "geometry": { "type": "Point", "coordinates": [ 144.617, 13.45 ] } },
{ "type": "Feature", "properties": { "category": "Oil Port", "title": "SUDAK", "entity": "", "description": "", "comment": "", "capacity": "M", "link1": "", "link2": "", "link3": "", "source": "", "variable1": "", "variable2": "" }, "geometry": { "type": "Point", "coordinates": [ 34.983, 44.85 ] } },
{ "type": "Feature", "properties": { "category": "Oil Port", "title": "MURMANSK", "entity": "", "description": "", "comment": "", "capacity": "M", "link1": "", "link2": "", "link3": "", "source": "", "variable1": "", "variable2": "" }, "geometry": { "type": "Point", "coordinates": [ 33.05, 68.983 ] } },
{ "type": "Feature", "properties": { "category": "Oil Port", "title": "MOJI KO", "entity": "", "description": "", "comment": "", "capacity": "M", "link1": "", "link2": "", "link3": "", "source": "", "variable1": "", "variable2": "" }, "geometry": { "type": "Point", "coordinates": [ 130.967, 33.95 ] } },
{ "type": "Feature", "properties": { "category": "Oil Port", "title": "RAS BADRAN OIL TERMINAL", "entity": "", "description": "", "comment": "", "capacity": "M", "link1": "", "link2": "", "link3": "", "source": "", "variable1": "", "variable2": "" }, "geometry": { "type": "Point", "coordinates": [ 33.167, 28.95 ] } },
{ "type": "Feature", "properties": { "category": "Oil Port", "title": "BANDAR-E PARS TERMINAL", "entity": "", "description": "", "comment": "", "capacity": "M", "link1": "", "link2": "", "link3": "", "source": "", "variable1": "", "variable2": "" }, "geometry": { "type": "Point", "coordinates": [ 52.533, 27.533 ] } },
{ "type": "Feature", "properties": { "category": "Oil Port", "title": "BARKAN OIL-LOADING TERMINAL", "entity": "", "description": "", "comment": "", "capacity": "M", "link1": "", "link2": "", "link3": "", "source": "", "variable1": "", "variable2": "" }, "geometry": { "type": "Point", "coordinates": [ 50.167, 29.733 ] } },
{ "type": "Feature", "properties": { "category": "Oil Port", "title": "JU AYMAH LPG TERMINAL", "entity": "", "description": "", "comment": "", "capacity": "M", "link1": "", "link2": "", "link3": "", "source": "", "variable1": "", "variable2": "" }, "geometry": { "type": "Point", "coordinates": [ 50.05, 26.867 ] } },
{ "type": "Feature", "properties": { "category": "Oil Port", "title": "HULAYLAH OIL TERMINAL", "entity": "", "description": "", "comment": "", "capacity": "M", "link1": "", "link2": "", "link3": "", "source": "", "variable1": "", "variable2": "" }, "geometry": { "type": "Point", "coordinates": [ 55.933, 25.983 ] } },
{ "type": "Feature", "properties": { "category": "Oil Port", "title": "MAILIAO", "entity": "", "description": "", "comment": "", "capacity": "no information", "link1": "", "link2": "", "link3": "", "source": "", "variable1": "", "variable2": "" }, "geometry": { "type": "Point", "coordinates": [ 120.167, 23.783 ] } },
{ "type": "Feature", "properties": { "category": "Oil Port", "title": "QUANZHOU", "entity": "", "description": "", "comment": "", "capacity": "no information", "link1": "", "link2": "", "link3": "", "source": "", "variable1": "", "variable2": "" }, "geometry": { "type": "Point", "coordinates": [ 118.6, 24.883 ] } },
{ "type": "Feature", "properties": { "category": "Oil Port", "title": "EUROPOORT", "entity": "", "description": "", "comment": "", "capacity": "L", "link1": "", "link2": "", "link3": "", "source": "", "variable1": "", "variable2": "" }, "geometry": { "type": "Point", "coordinates": [ 4.117, 51.95 ] } },
{ "type": "Feature", "properties": { "category": "Oil Port", "title": "MAASSLUIS", "entity": "", "description": "", "comment": "", "capacity": "M", "link1": "", "link2": "", "link3": "", "source": "", "variable1": "", "variable2": "" }, "geometry": { "type": "Point", "coordinates": [ 4.25, 51.917 ] } },
{ "type": "Feature", "properties": { "category": "Oil Port", "title": "MJIMWEMA TERMINAL", "entity": "", "description": "", "comment": "", "capacity": "M", "link1": "", "link2": "", "link3": "", "source": "", "variable1": "", "variable2": "" }, "geometry": { "type": "Point", "coordinates": [ 39.367, -6.817 ] } },
{ "type": "Feature", "properties": { "category": "Oil Port", "title": "UDANG OILFIELD", "entity": "", "description": "", "comment": "", "capacity": "M", "link1": "", "link2": "", "link3": "", "source": "", "variable1": "", "variable2": "" }, "geometry": { "type": "Point", "coordinates": [ 106.483, 4.033 ] } },
{ "type": "Feature", "properties": { "category": "Oil Port", "title": "KUMUL", "entity": "", "description": "", "comment": "", "capacity": "L", "link1": "", "link2": "", "link3": "", "source": "", "variable1": "", "variable2": "" }, "geometry": { "type": "Point", "coordinates": [ 144.567, -8.1 ] } },
{ "type": "Feature", "properties": { "category": "Oil Port", "title": "NOVOROSSIYSK", "entity": "", "description": "", "comment": "", "capacity": "M", "link1": "", "link2": "", "link3": "", "source": "", "variable1": "", "variable2": "" }, "geometry": { "type": "Point", "coordinates": [ 37.783, 44.717 ] } },
{ "type": "Feature", "properties": { "category": "Oil Port", "title": "KALI LIMENES", "entity": "", "description": "", "comment": "", "capacity": "L", "link1": "", "link2": "", "link3": "", "source": "", "variable1": "", "variable2": "" }, "geometry": { "type": "Point", "coordinates": [ 24.833, 34.933 ] } },
{ "type": "Feature", "properties": { "category": "Oil Port", "title": "OITA KO", "entity": "", "description": "", "comment": "", "capacity": "L", "link1": "", "link2": "", "link3": "", "source": "", "variable1": "", "variable2": "" }, "geometry": { "type": "Point", "coordinates": [ 131.667, 33.25 ] } },
{ "type": "Feature", "properties": { "category": "Oil Port", "title": "KIIRE", "entity": "", "description": "", "comment": "", "capacity": "L", "link1": "", "link2": "", "link3": "", "source": "", "variable1": "", "variable2": "" }, "geometry": { "type": "Point", "coordinates": [ 130.55, 31.383 ] } },
{ "type": "Feature", "properties": { "category": "Oil Port", "title": "SASEBO", "entity": "", "description": "", "comment": "", "capacity": "L", "link1": "", "link2": "", "link3": "", "source": "", "variable1": "", "variable2": "" }, "geometry": { "type": "Point", "coordinates": [ 129.717, 33.167 ] } },
{ "type": "Feature", "properties": { "category": "Oil Port", "title": "IMARI", "entity": "", "description": "", "comment": "", "capacity": "L", "link1": "", "link2": "", "link3": "", "source": "", "variable1": "", "variable2": "" }, "geometry": { "type": "Point", "coordinates": [ 129.883, 33.283 ] } },
{ "type": "Feature", "properties": { "category": "Oil Port", "title": "COLOMBO", "entity": "", "description": "", "comment": "", "capacity": "M", "link1": "", "link2": "", "link3": "", "source": "", "variable1": "", "variable2": "" }, "geometry": { "type": "Point", "coordinates": [ 79.85, 6.95 ] } },
{ "type": "Feature", "properties": { "category": "Oil Port", "title": "BANDAR-E MAHSHAHR", "entity": "", "description": "", "comment": "", "capacity": "M", "link1": "", "link2": "", "link3": "", "source": "", "variable1": "", "variable2": "" }, "geometry": { "type": "Point", "coordinates": [ 49.183, 30.467 ] } },
{ "type": "Feature", "properties": { "category": "Oil Port", "title": "KHARG ISLAND OIL TERMINAL", "entity": "", "description": "", "comment": "", "capacity": "M", "link1": "", "link2": "", "link3": "", "source": "", "variable1": "", "variable2": "" }, "geometry": { "type": "Point", "coordinates": [ 50.333, 29.233 ] } },
{ "type": "Feature", "properties": { "category": "Oil Port", "title": "SIRUS OIL TERMINAL", "entity": "", "description": "", "comment": "", "capacity": "L", "link1": "", "link2": "", "link3": "", "source": "", "variable1": "", "variable2": "" }, "geometry": { "type": "Point", "coordinates": [ 49.483, 29.017 ] } },
{ "type": "Feature", "properties": { "category": "Oil Port", "title": "JAZIREH-YE LAVAN OIL TERMINAL", "entity": "", "description": "", "comment": "", "capacity": "M", "link1": "", "link2": "", "link3": "", "source": "", "variable1": "", "variable2": "" }, "geometry": { "type": "Point", "coordinates": [ 53.333, 26.783 ] } },
{ "type": "Feature", "properties": { "category": "Oil Port", "title": "JAZIREH-YE SIRRI", "entity": "", "description": "", "comment": "", "capacity": "M", "link1": "", "link2": "", "link3": "", "source": "", "variable1": "", "variable2": "" }, "geometry": { "type": "Point", "coordinates": [ 54.55, 25.9 ] } },
{ "type": "Feature", "properties": { "category": "Oil Port", "title": "KARACHI", "entity": "", "description": "", "comment": "", "capacity": "L", "link1": "", "link2": "", "link3": "", "source": "", "variable1": "", "variable2": "" }, "geometry": { "type": "Point", "coordinates": [ 66.983, 24.783 ] } },
{ "type": "Feature", "properties": { "category": "Oil Port", "title": "ENSTED", "entity": "", "description": "", "comment": "", "capacity": "M", "link1": "", "link2": "", "link3": "", "source": "", "variable1": "", "variable2": "" }, "geometry": { "type": "Point", "coordinates": [ 9.433, 55.017 ] } },
{ "type": "Feature", "properties": { "category": "Oil Port", "title": "PUERTO SANDINO", "entity": "", "description": "", "comment": "", "capacity": "L", "link1": "", "link2": "", "link3": "", "source": "", "variable1": "", "variable2": "" }, "geometry": { "type": "Point", "coordinates": [ -86.767, 12.183 ] } },
{ "type": "Feature", "properties": { "category": "Oil Port", "title": "TOAMASINA", "entity": "", "description": "", "comment": "", "capacity": "M", "link1": "", "link2": "", "link3": "", "source": "", "variable1": "", "variable2": "" }, "geometry": { "type": "Point", "coordinates": [ 49.417, -18.167 ] } },
{ "type": "Feature", "properties": { "category": "Oil Port", "title": "WHANGAREI", "entity": "", "description": "", "comment": "", "capacity": "M", "link1": "", "link2": "", "link3": "", "source": "", "variable1": "", "variable2": "" }, "geometry": { "type": "Point", "coordinates": [ 174.433, -35.8 ] } },
{ "type": "Feature", "properties": { "category": "Oil Port", "title": "NEW PLYMOUTH", "entity": "", "description": "", "comment": "", "capacity": "L", "link1": "", "link2": "", "link3": "", "source": "", "variable1": "", "variable2": "" }, "geometry": { "type": "Point", "coordinates": [ 174.033, -39.067 ] } },
{ "type": "Feature", "properties": { "category": "Oil Port", "title": "CONSTANTA", "entity": "", "description": "", "comment": "", "capacity": "M", "link1": "", "link2": "", "link3": "", "source": "", "variable1": "", "variable2": "" }, "geometry": { "type": "Point", "coordinates": [ 28.65, 44.167 ] } },
{ "type": "Feature", "properties": { "category": "Oil Port", "title": "MUMBAI (BOMBAY)", "entity": "", "description": "", "comment": "", "capacity": "L", "link1": "", "link2": "", "link3": "", "source": "", "variable1": "", "variable2": "" }, "geometry": { "type": "Point", "coordinates": [ 72.867, 18.967 ] } },
{ "type": "Feature", "properties": { "category": "Oil Port", "title": "JAWAHARLAL NEHRU PORT (NHAVA SHIVA)", "entity": "", "description": "", "comment": "", "capacity": "L", "link1": "", "link2": "", "link3": "", "source": "", "variable1": "", "variable2": "" }, "geometry": { "type": "Point", "coordinates": [ 72.95, 18.95 ] } },
{ "type": "Feature", "properties": { "category": "Oil Port", "title": "KOCHI (COCHIN)", "entity": "", "description": "", "comment": "", "capacity": "L", "link1": "", "link2": "", "link3": "", "source": "", "variable1": "", "variable2": "" }, "geometry": { "type": "Point", "coordinates": [ 76.233, 9.967 ] } },
{ "type": "Feature", "properties": { "category": "Oil Port", "title": "BRISTOL", "entity": "", "description": "", "comment": "", "capacity": "M", "link1": "", "link2": "", "link3": "", "source": "", "variable1": "", "variable2": "" }, "geometry": { "type": "Point", "coordinates": [ -2.633, 51.467 ] } },
{ "type": "Feature", "properties": { "category": "Oil Port", "title": "CORINTO", "entity": "", "description": "", "comment": "", "capacity": "L", "link1": "", "link2": "", "link3": "", "source": "", "variable1": "", "variable2": "" }, "geometry": { "type": "Point", "coordinates": [ -87.167, 12.483 ] } },
{ "type": "Feature", "properties": { "category": "Oil Port", "title": "ACAJUTLA", "entity": "", "description": "", "comment": "", "capacity": "L", "link1": "", "link2": "", "link3": "", "source": "", "variable1": "", "variable2": "" }, "geometry": { "type": "Point", "coordinates": [ -89.833, 13.583 ] } },
{ "type": "Feature", "properties": { "category": "Oil Port", "title": "PUERTO QUETZAL", "entity": "", "description": "", "comment": "", "capacity": "L", "link1": "", "link2": "", "link3": "", "source": "", "variable1": "", "variable2": "" }, "geometry": { "type": "Point", "coordinates": [ -90.8, 13.917 ] } },
{ "type": "Feature", "properties": { "category": "Oil Port", "title": "BAHIA SAN VICENTE", "entity": "", "description": "", "comment": "", "capacity": "L", "link1": "", "link2": "", "link3": "", "source": "", "variable1": "", "variable2": "" }, "geometry": { "type": "Point", "coordinates": [ -73.167, -36.733 ] } },
{ "type": "Feature", "properties": { "category": "Oil Port", "title": "BAHIA DE VALPARAISO", "entity": "", "description": "", "comment": "", "capacity": "L", "link1": "", "link2": "", "link3": "", "source": "", "variable1": "", "variable2": "" }, "geometry": { "type": "Point", "coordinates": [ -71.617, -33.033 ] } },
{ "type": "Feature", "properties": { "category": "Oil Port", "title": "BAHIA QUINTERO (VENTANAS)", "entity": "", "description": "", "comment": "", "capacity": "L", "link1": "", "link2": "", "link3": "", "source": "", "variable1": "", "variable2": "" }, "geometry": { "type": "Point", "coordinates": [ -71.533, -32.767 ] } },
{ "type": "Feature", "properties": { "category": "Oil Port", "title": "BAHIA HERRADURA GUAYACAN", "entity": "", "description": "", "comment": "", "capacity": "L", "link1": "", "link2": "", "link3": "", "source": "", "variable1": "", "variable2": "" }, "geometry": { "type": "Point", "coordinates": [ -71.367, -29.967 ] } },
{ "type": "Feature", "properties": { "category": "Oil Port", "title": "HUASCO", "entity": "", "description": "", "comment": "", "capacity": "L", "link1": "", "link2": "", "link3": "", "source": "", "variable1": "", "variable2": "" }, "geometry": { "type": "Point", "coordinates": [ -71.25, -28.467 ] } },
{ "type": "Feature", "properties": { "category": "Oil Port", "title": "PUERTO CHANARAL", "entity": "", "description": "", "comment": "", "capacity": "L", "link1": "", "link2": "", "link3": "", "source": "", "variable1": "", "variable2": "" }, "geometry": { "type": "Point", "coordinates": [ -70.65, -26.35 ] } },
{ "type": "Feature", "properties": { "category": "Oil Port", "title": "TALTAL", "entity": "", "description": "", "comment": "", "capacity": "L", "link1": "", "link2": "", "link3": "", "source": "", "variable1": "", "variable2": "" }, "geometry": { "type": "Point", "coordinates": [ -70.483, -25.4 ] } },
{ "type": "Feature", "properties": { "category": "Oil Port", "title": "ANTOFAGASTA", "entity": "", "description": "", "comment": "", "capacity": "L", "link1": "", "link2": "", "link3": "", "source": "", "variable1": "", "variable2": "" }, "geometry": { "type": "Point", "coordinates": [ -70.417, -23.65 ] } },
{ "type": "Feature", "properties": { "category": "Oil Port", "title": "MEJILLONES", "entity": "", "description": "", "comment": "", "capacity": "L", "link1": "", "link2": "", "link3": "", "source": "", "variable1": "", "variable2": "" }, "geometry": { "type": "Point", "coordinates": [ -70.467, -23.1 ] } },
{ "type": "Feature", "properties": { "category": "Oil Port", "title": "TOCOPILLA", "entity": "", "description": "", "comment": "", "capacity": "L", "link1": "", "link2": "", "link3": "", "source": "", "variable1": "", "variable2": "" }, "geometry": { "type": "Point", "coordinates": [ -70.233, -22.083 ] } },
{ "type": "Feature", "properties": { "category": "Oil Port", "title": "RADA DE ARICA", "entity": "", "description": "", "comment": "", "capacity": "L", "link1": "", "link2": "", "link3": "", "source": "", "variable1": "", "variable2": "" }, "geometry": { "type": "Point", "coordinates": [ -70.333, -18.467 ] } },
{ "type": "Feature", "properties": { "category": "Oil Port", "title": "PUERTO ILO", "entity": "", "description": "", "comment": "", "capacity": "L", "link1": "", "link2": "", "link3": "", "source": "", "variable1": "", "variable2": "" }, "geometry": { "type": "Point", "coordinates": [ -71.367, -17.633 ] } },
{ "type": "Feature", "properties": { "category": "Oil Port", "title": "BAHIA DE MATARANI", "entity": "", "description": "", "comment": "", "capacity": "L", "link1": "", "link2": "", "link3": "", "source": "", "variable1": "", "variable2": "" }, "geometry": { "type": "Point", "coordinates": [ -72.117, -17.0 ] } },
{ "type": "Feature", "properties": { "category": "Oil Port", "title": "BAHIA SAN NICOLAS", "entity": "", "description": "", "comment": "", "capacity": "L", "link1": "", "link2": "", "link3": "", "source": "", "variable1": "", "variable2": "" }, "geometry": { "type": "Point", "coordinates": [ -75.233, -15.25 ] } },
{ "type": "Feature", "properties": { "category": "Oil Port", "title": "AMUAY (BAHIA DE AMUAY)", "entity": "", "description": "", "comment": "", "capacity": "L", "link1": "", "link2": "", "link3": "", "source": "", "variable1": "", "variable2": "" }, "geometry": { "type": "Point", "coordinates": [ -70.233, 11.75 ] } },
{ "type": "Feature", "properties": { "category": "Oil Port", "title": "EL PALITO", "entity": "", "description": "", "comment": "", "capacity": "L", "link1": "", "link2": "", "link3": "", "source": "", "variable1": "", "variable2": "" }, "geometry": { "type": "Point", "coordinates": [ -68.117, 10.483 ] } },
{ "type": "Feature", "properties": { "category": "Oil Port", "title": "BAHIA DE PERTIGALETE", "entity": "", "description": "", "comment": "", "capacity": "M", "link1": "", "link2": "", "link3": "", "source": "", "variable1": "", "variable2": "" }, "geometry": { "type": "Point", "coordinates": [ -64.567, 10.233 ] } },
{ "type": "Feature", "properties": { "category": "Oil Port", "title": "FORT DE FRANCE", "entity": "", "description": "", "comment": "", "capacity": "L", "link1": "", "link2": "", "link3": "", "source": "", "variable1": "", "variable2": "" }, "geometry": { "type": "Point", "coordinates": [ -61.067, 14.6 ] } },
{ "type": "Feature", "properties": { "category": "Oil Port", "title": "THESSALONIKI", "entity": "", "description": "", "comment": "", "capacity": "L", "link1": "", "link2": "", "link3": "", "source": "", "variable1": "", "variable2": "" }, "geometry": { "type": "Point", "coordinates": [ 22.933, 40.633 ] } },
{ "type": "Feature", "properties": { "category": "Oil Port", "title": "PORT LYTTELTON", "entity": "", "description": "", "comment": "", "capacity": "M", "link1": "", "link2": "", "link3": "", "source": "", "variable1": "", "variable2": "" }, "geometry": { "type": "Point", "coordinates": [ 172.717, -43.6 ] } },
{ "type": "Feature", "properties": { "category": "Oil Port", "title": "FOYNES", "entity": "", "description": "", "comment": "", "capacity": "L", "link1": "", "link2": "", "link3": "", "source": "", "variable1": "", "variable2": "" }, "geometry": { "type": "Point", "coordinates": [ -9.117, 52.617 ] } },
{ "type": "Feature", "properties": { "category": "Oil Port", "title": "TARBERT", "entity": "", "description": "", "comment": "", "capacity": "L", "link1": "", "link2": "", "link3": "", "source": "", "variable1": "", "variable2": "" }, "geometry": { "type": "Point", "coordinates": [ -9.367, 52.583 ] } },
{ "type": "Feature", "properties": { "category": "Oil Port", "title": "BANTRY", "entity": "", "description": "", "comment": "", "capacity": "L", "link1": "", "link2": "", "link3": "", "source": "", "variable1": "", "variable2": "" }, "geometry": { "type": "Point", "coordinates": [ -9.45, 51.683 ] } },
{ "type": "Feature", "properties": { "category": "Oil Port", "title": "KIN WAN", "entity": "", "description": "", "comment": "", "capacity": "L", "link1": "", "link2": "", "link3": "", "source": "", "variable1": "", "variable2": "" }, "geometry": { "type": "Point", "coordinates": [ 127.9, 26.417 ] } },
{ "type": "Feature", "properties": { "category": "Oil Port", "title": "NANAO KO", "entity": "", "description": "", "comment": "", "capacity": "L", "link1": "", "link2": "", "link3": "", "source": "", "variable1": "", "variable2": "" }, "geometry": { "type": "Point", "coordinates": [ 136.983, 37.05 ] } },
{ "type": "Feature", "properties": { "category": "Oil Port", "title": "ZHAPU", "entity": "", "description": "", "comment": "", "capacity": "M", "link1": "", "link2": "", "link3": "", "source": "", "variable1": "", "variable2": "" }, "geometry": { "type": "Point", "coordinates": [ 121.083, 30.583 ] } },
{ "type": "Feature", "properties": { "category": "Oil Port", "title": "KEMAMAN HARBOR", "entity": "", "description": "", "comment": "", "capacity": "L", "link1": "", "link2": "", "link3": "", "source": "", "variable1": "", "variable2": "" }, "geometry": { "type": "Point", "coordinates": [ 103.467, 4.25 ] } },
{ "type": "Feature", "properties": { "category": "Oil Port", "title": "TANJUNG PELEPAS", "entity": "", "description": "", "comment": "", "capacity": "L", "link1": "", "link2": "", "link3": "", "source": "", "variable1": "", "variable2": "" }, "geometry": { "type": "Point", "coordinates": [ 103.55, 1.35 ] } },
{ "type": "Feature", "properties": { "category": "Oil Port", "title": "BONGKOT TERMINAL", "entity": "", "description": "", "comment": "", "capacity": "L", "link1": "", "link2": "", "link3": "", "source": "", "variable1": "", "variable2": "" }, "geometry": { "type": "Point", "coordinates": [ 102.333, 8.05 ] } },
{ "type": "Feature", "properties": { "category": "Oil Port", "title": "VUNG TAU", "entity": "", "description": "", "comment": "", "capacity": "L", "link1": "", "link2": "", "link3": "", "source": "", "variable1": "", "variable2": "" }, "geometry": { "type": "Point", "coordinates": [ 107.067, 10.35 ] } },
{ "type": "Feature", "properties": { "category": "Oil Port", "title": "TANTAWAN MARINE TERMINAL", "entity": "", "description": "", "comment": "", "capacity": "M", "link1": "", "link2": "", "link3": "", "source": "", "variable1": "", "variable2": "" }, "geometry": { "type": "Point", "coordinates": [ 101.417, 10.083 ] } },
{ "type": "Feature", "properties": { "category": "Oil Port", "title": "LAEM CHABANG", "entity": "", "description": "", "comment": "", "capacity": "L", "link1": "", "link2": "", "link3": "", "source": "", "variable1": "", "variable2": "" }, "geometry": { "type": "Point", "coordinates": [ 100.883, 13.083 ] } },
{ "type": "Feature", "properties": { "category": "Oil Port", "title": "PITEA", "entity": "", "description": "", "comment": "", "capacity": "M", "link1": "", "link2": "", "link3": "", "source": "", "variable1": "", "variable2": "" }, "geometry": { "type": "Point", "coordinates": [ 21.483, 65.317 ] } },
{ "type": "Feature", "properties": { "category": "Oil Port", "title": "ERAWAN TERMINAL", "entity": "", "description": "", "comment": "", "capacity": "L", "link1": "", "link2": "", "link3": "", "source": "", "variable1": "", "variable2": "" }, "geometry": { "type": "Point", "coordinates": [ 101.35, 9.1 ] } },
{ "type": "Feature", "properties": { "category": "Oil Port", "title": "BENCHAMAS TERMINAL", "entity": "", "description": "", "comment": "", "capacity": "L", "link1": "", "link2": "", "link3": "", "source": "", "variable1": "", "variable2": "" }, "geometry": { "type": "Point", "coordinates": [ 101.25, 10.517 ] } },
{ "type": "Feature", "properties": { "category": "Oil Port", "title": "PORT BONYTHON", "entity": "", "description": "", "comment": "", "capacity": "M", "link1": "", "link2": "", "link3": "", "source": "", "variable1": "", "variable2": "" }, "geometry": { "type": "Point", "coordinates": [ 137.767, -33.017 ] } },
{ "type": "Feature", "properties": { "category": "Oil Port", "title": "ESPERANCE", "entity": "", "description": "", "comment": "", "capacity": "M", "link1": "", "link2": "", "link3": "", "source": "", "variable1": "", "variable2": "" }, "geometry": { "type": "Point", "coordinates": [ 121.9, -33.867 ] } },
{ "type": "Feature", "properties": { "category": "Oil Port", "title": "MEGARA OIL TERMINAL", "entity": "", "description": "", "comment": "", "capacity": "L", "link1": "", "link2": "", "link3": "", "source": "", "variable1": "", "variable2": "" }, "geometry": { "type": "Point", "coordinates": [ 23.4, 37.967 ] } },
{ "type": "Feature", "properties": { "category": "Oil Port", "title": "ELEVSIS", "entity": "", "description": "", "comment": "", "capacity": "L", "link1": "", "link2": "", "link3": "", "source": "", "variable1": "", "variable2": "" }, "geometry": { "type": "Point", "coordinates": [ 23.55, 38.033 ] } },
{ "type": "Feature", "properties": { "category": "Oil Port", "title": "PAKHI OIL TERMINAL", "entity": "", "description": "", "comment": "", "capacity": "M", "link1": "", "link2": "", "link3": "", "source": "", "variable1": "", "variable2": "" }, "geometry": { "type": "Point", "coordinates": [ 23.383, 37.967 ] } },
{ "type": "Feature", "properties": { "category": "Oil Port", "title": "NIIGATA KO", "entity": "", "description": "", "comment": "", "capacity": "L", "link1": "", "link2": "", "link3": "", "source": "", "variable1": "", "variable2": "" }, "geometry": { "type": "Point", "coordinates": [ 139.05, 37.917 ] } },
{ "type": "Feature", "properties": { "category": "Oil Port", "title": "AKITA-FUNAKAWA KO", "entity": "", "description": "", "comment": "", "capacity": "L", "link1": "", "link2": "", "link3": "", "source": "", "variable1": "", "variable2": "" }, "geometry": { "type": "Point", "coordinates": [ 140.0, 39.833 ] } },
{ "type": "Feature", "properties": { "category": "Oil Port", "title": "KIKUMA KO", "entity": "", "description": "", "comment": "", "capacity": "L", "link1": "", "link2": "", "link3": "", "source": "", "variable1": "", "variable2": "" }, "geometry": { "type": "Point", "coordinates": [ 132.833, 34.033 ] } },
{ "type": "Feature", "properties": { "category": "Oil Port", "title": "MUTUREZIMA KO", "entity": "", "description": "", "comment": "", "capacity": "L", "link1": "", "link2": "", "link3": "", "source": "", "variable1": "", "variable2": "" }, "geometry": { "type": "Point", "coordinates": [ 130.867, 33.967 ] } },
{ "type": "Feature", "properties": { "category": "Oil Port", "title": "MALE", "entity": "", "description": "", "comment": "", "capacity": "M", "link1": "", "link2": "", "link3": "", "source": "", "variable1": "", "variable2": "" }, "geometry": { "type": "Point", "coordinates": [ 73.5, 4.167 ] } },
{ "type": "Feature", "properties": { "category": "Oil Port", "title": "MINA AL FAHL", "entity": "", "description": "", "comment": "", "capacity": "M", "link1": "", "link2": "", "link3": "", "source": "", "variable1": "", "variable2": "" }, "geometry": { "type": "Point", "coordinates": [ 58.517, 23.633 ] } },
{ "type": "Feature", "properties": { "category": "Oil Port", "title": "FUJAYRAH HARBOR", "entity": "", "description": "", "comment": "", "capacity": "L", "link1": "", "link2": "", "link3": "", "source": "", "variable1": "", "variable2": "" }, "geometry": { "type": "Point", "coordinates": [ 56.333, 25.167 ] } },
{ "type": "Feature", "properties": { "category": "Oil Port", "title": "FATEH OIL TERMINAL", "entity": "", "description": "", "comment": "", "capacity": "L", "link1": "", "link2": "", "link3": "", "source": "", "variable1": "", "variable2": "" }, "geometry": { "type": "Point", "coordinates": [ 54.417, 25.583 ] } },
{ "type": "Feature", "properties": { "category": "Oil Port", "title": "MUBARRAZ OIL TERMINAL", "entity": "", "description": "", "comment": "", "capacity": "L", "link1": "", "link2": "", "link3": "", "source": "", "variable1": "", "variable2": "" }, "geometry": { "type": "Point", "coordinates": [ 53.517, 24.433 ] } },
{ "type": "Feature", "properties": { "category": "Oil Port", "title": "AL HAMRIYAH LPG TERMINAL", "entity": "", "description": "", "comment": "", "capacity": "L", "link1": "", "link2": "", "link3": "", "source": "", "variable1": "", "variable2": "" }, "geometry": { "type": "Point", "coordinates": [ 55.483, 25.467 ] } },
{ "type": "Feature", "properties": { "category": "Oil Port", "title": "MINA JABAL ALI", "entity": "", "description": "", "comment": "", "capacity": "L", "link1": "", "link2": "", "link3": "", "source": "", "variable1": "", "variable2": "" }, "geometry": { "type": "Point", "coordinates": [ 55.05, 25.017 ] } },
{ "type": "Feature", "properties": { "category": "Oil Port", "title": "JAZIRAT DAS", "entity": "", "description": "", "comment": "", "capacity": "M", "link1": "", "link2": "", "link3": "", "source": "", "variable1": "", "variable2": "" }, "geometry": { "type": "Point", "coordinates": [ 52.867, 25.15 ] } },
{ "type": "Feature", "properties": { "category": "Oil Port", "title": "ABU ZABY", "entity": "", "description": "", "comment": "", "capacity": "L", "link1": "", "link2": "", "link3": "", "source": "", "variable1": "", "variable2": "" }, "geometry": { "type": "Point", "coordinates": [ 54.333, 24.5 ] } },
{ "type": "Feature", "properties": { "category": "Oil Port", "title": "JABAL AZ ZANNAH\/RUWAYS", "entity": "", "description": "", "comment": "", "capacity": "L", "link1": "", "link2": "", "link3": "", "source": "", "variable1": "", "variable2": "" }, "geometry": { "type": "Point", "coordinates": [ 52.7, 24.2 ] } },
{ "type": "Feature", "properties": { "category": "Oil Port", "title": "UMM SAID", "entity": "", "description": "", "comment": "", "capacity": "M", "link1": "", "link2": "", "link3": "", "source": "", "variable1": "", "variable2": "" }, "geometry": { "type": "Point", "coordinates": [ 51.567, 24.917 ] } },
{ "type": "Feature", "properties": { "category": "Oil Port", "title": "TSURUGA KO", "entity": "", "description": "", "comment": "", "capacity": "L", "link1": "", "link2": "", "link3": "", "source": "", "variable1": "", "variable2": "" }, "geometry": { "type": "Point", "coordinates": [ 136.067, 35.65 ] } },
{ "type": "Feature", "properties": { "category": "Oil Port", "title": "VADINAR TERMINAL", "entity": "", "description": "", "comment": "", "capacity": "L", "link1": "", "link2": "", "link3": "", "source": "", "variable1": "", "variable2": "" }, "geometry": { "type": "Point", "coordinates": [ 69.7, 22.517 ] } },
{ "type": "Feature", "properties": { "category": "Oil Port", "title": "NAKAGUSUKU", "entity": "", "description": "", "comment": "", "capacity": "L", "link1": "", "link2": "", "link3": "", "source": "", "variable1": "", "variable2": "" }, "geometry": { "type": "Point", "coordinates": [ 127.917, 26.267 ] } },
{ "type": "Feature", "properties": { "category": "Oil Port", "title": "AOKATA", "entity": "", "description": "", "comment": "", "capacity": "no information", "link1": "", "link2": "", "link3": "", "source": "", "variable1": "", "variable2": "" }, "geometry": { "type": "Point", "coordinates": [ 129.067, 32.983 ] } },
{ "type": "Feature", "properties": { "category": "Oil Port", "title": "FUKUI", "entity": "", "description": "", "comment": "", "capacity": "no information", "link1": "", "link2": "", "link3": "", "source": "", "variable1": "", "variable2": "" }, "geometry": { "type": "Point", "coordinates": [ 136.2, 36.067 ] } },
{ "type": "Feature", "properties": { "category": "Oil Port", "title": "NISHIHARA", "entity": "", "description": "", "comment": "", "capacity": "L", "link1": "", "link2": "", "link3": "", "source": "", "variable1": "", "variable2": "" }, "geometry": { "type": "Point", "coordinates": [ 127.8, 26.217 ] } },
{ "type": "Feature", "properties": { "category": "Oil Port", "title": "CHARCO AZUL", "entity": "", "description": "", "comment": "", "capacity": "L", "link1": "", "link2": "", "link3": "", "source": "", "variable1": "", "variable2": "" }, "geometry": { "type": "Point", "coordinates": [ -82.867, 8.217 ] } },
{ "type": "Feature", "properties": { "category": "Oil Port", "title": "HAKODATE KO", "entity": "", "description": "", "comment": "", "capacity": "L", "link1": "", "link2": "", "link3": "", "source": "", "variable1": "", "variable2": "" }, "geometry": { "type": "Point", "coordinates": [ 140.717, 41.783 ] } },
{ "type": "Feature", "properties": { "category": "Oil Port", "title": "SENDAI-SHIOGAMA", "entity": "", "description": "", "comment": "", "capacity": "L", "link1": "", "link2": "", "link3": "", "source": "", "variable1": "", "variable2": "" }, "geometry": { "type": "Point", "coordinates": [ 141.033, 38.317 ] } },
{ "type": "Feature", "properties": { "category": "Oil Port", "title": "ONAHAMA KO", "entity": "", "description": "", "comment": "", "capacity": "L", "link1": "", "link2": "", "link3": "", "source": "", "variable1": "", "variable2": "" }, "geometry": { "type": "Point", "coordinates": [ 140.9, 36.933 ] } },
{ "type": "Feature", "properties": { "category": "Oil Port", "title": "KASHIMA KO", "entity": "", "description": "", "comment": "", "capacity": "L", "link1": "", "link2": "", "link3": "", "source": "", "variable1": "", "variable2": "" }, "geometry": { "type": "Point", "coordinates": [ 140.7, 35.933 ] } },
{ "type": "Feature", "properties": { "category": "Oil Port", "title": "CHIBA KO", "entity": "", "description": "", "comment": "", "capacity": "L", "link1": "", "link2": "", "link3": "", "source": "", "variable1": "", "variable2": "" }, "geometry": { "type": "Point", "coordinates": [ 140.067, 35.583 ] } },
{ "type": "Feature", "properties": { "category": "Oil Port", "title": "KAWASAKI KO", "entity": "", "description": "", "comment": "", "capacity": "L", "link1": "", "link2": "", "link3": "", "source": "", "variable1": "", "variable2": "" }, "geometry": { "type": "Point", "coordinates": [ 139.767, 35.5 ] } },
{ "type": "Feature", "properties": { "category": "Oil Port", "title": "YOKOHAMA KO", "entity": "", "description": "", "comment": "", "capacity": "L", "link1": "", "link2": "", "link3": "", "source": "", "variable1": "", "variable2": "" }, "geometry": { "type": "Point", "coordinates": [ 139.583, 35.45 ] } },
{ "type": "Feature", "properties": { "category": "Oil Port", "title": "RICHARDS BAY", "entity": "", "description": "", "comment": "", "capacity": "M", "link1": "", "link2": "", "link3": "", "source": "", "variable1": "", "variable2": "" }, "geometry": { "type": "Point", "coordinates": [ 32.083, -28.817 ] } },
{ "type": "Feature", "properties": { "category": "Oil Port", "title": "PORTO DI CORSINI", "entity": "", "description": "", "comment": "", "capacity": "M", "link1": "", "link2": "", "link3": "", "source": "", "variable1": "", "variable2": "" }, "geometry": { "type": "Point", "coordinates": [ 12.283, 44.5 ] } },
{ "type": "Feature", "properties": { "category": "Oil Port", "title": "PORTO DI MALAMOCCO", "entity": "", "description": "", "comment": "", "capacity": "M", "link1": "", "link2": "", "link3": "", "source": "", "variable1": "", "variable2": "" }, "geometry": { "type": "Point", "coordinates": [ 12.317, 45.333 ] } },
{ "type": "Feature", "properties": { "category": "Oil Port", "title": "PORTO DI LIDO-VENEZIA", "entity": "", "description": "", "comment": "", "capacity": "L", "link1": "", "link2": "", "link3": "", "source": "", "variable1": "", "variable2": "" }, "geometry": { "type": "Point", "coordinates": [ 12.433, 45.417 ] } },
{ "type": "Feature", "properties": { "category": "Oil Port", "title": "TRIESTE", "entity": "", "description": "", "comment": "", "capacity": "L", "link1": "", "link2": "", "link3": "", "source": "", "variable1": "", "variable2": "" }, "geometry": { "type": "Point", "coordinates": [ 13.767, 45.65 ] } },
{ "type": "Feature", "properties": { "category": "Oil Port", "title": "OMISALJ", "entity": "", "description": "", "comment": "", "capacity": "L", "link1": "", "link2": "", "link3": "", "source": "", "variable1": "", "variable2": "" }, "geometry": { "type": "Point", "coordinates": [ 14.55, 45.217 ] } },
{ "type": "Feature", "properties": { "category": "Oil Port", "title": "GOVE", "entity": "", "description": "", "comment": "", "capacity": "L", "link1": "", "link2": "", "link3": "", "source": "", "variable1": "", "variable2": "" }, "geometry": { "type": "Point", "coordinates": [ 136.7, -12.2 ] } },