{
"type": "FeatureCollection",
"name": "UndergroundCoal",
"crs": { "type": "name", "properties": { "name": "urn:ogc:def:crs:OGC:1.3:CRS84" } },
"features": [
{ "type": "Feature", "properties": { "name": "Oak Grove Mine", "type_": "Deep Underground", "tot_prod": "1,497,321" }, "geometry": { "type": "Point", "coordinates": [ -87.139, 33.442 ] } },
{ "type": "Feature", "properties": { "name": "No 4 Mine", "type_": "Deep Underground", "tot_prod": "2,137,810" }, "geometry": { "type": "Point", "coordinates": [ -87.331, 33.329 ] } },
{ "type": "Feature", "properties": { "name": "No 7 Mine", "type_": "Deep Underground", "tot_prod": "5,597,175" }, "geometry": { "type": "Point", "coordinates": [ -87.214, 33.374 ] } },
{ "type": "Feature", "properties": { "name": "Shoal Creek Mine", "type_": "Deep Underground", "tot_prod": "2,659,074" }, "geometry": { "type": "Point", "coordinates": [ -87.304, 33.519 ] } },
{ "type": "Feature", "properties": { "name": "Carbon Hill Mine", "type_": "Deep Underground", "tot_prod": "104,640" }, "geometry": { "type": "Point", "coordinates": [ -87.531, 33.873 ] } },
{ "type": "Feature", "properties": { "name": "Maxine-Pratt Mine", "type_": "Deep Underground", "tot_prod": "192,294" }, "geometry": { "type": "Point", "coordinates": [ -87.141, 33.602 ] } },
{ "type": "Feature", "properties": { "name": "Lolley Mine No. 1", "type_": "Deep Underground", "tot_prod": "11,091" }, "geometry": { "type": "Point", "coordinates": [ -86.941, 33.198 ] } },
{ "type": "Feature", "properties": { "name": "Desperado Mine", "type_": "Deep Underground", "tot_prod": "2,073,860" }, "geometry": { "type": "Point", "coordinates": [ -108.726, 40.169 ] } },
{ "type": "Feature", "properties": { "name": "West Elk Mine", "type_": "Deep Underground", "tot_prod": "4,674,833" }, "geometry": { "type": "Point", "coordinates": [ -107.458, 38.933 ] } },
{ "type": "Feature", "properties": { "name": "Foidel Creek Mine", "type_": "Deep Underground", "tot_prod": "3,049,511" }, "geometry": { "type": "Point", "coordinates": [ -107.072, 40.353 ] } },
{ "type": "Feature", "properties": { "name": "King Ii", "type_": "Deep Underground", "tot_prod": "615,947" }, "geometry": { "type": "Point", "coordinates": [ -108.098, 37.251 ] } },
{ "type": "Feature", "properties": { "name": "Shay #1 Mine", "type_": "Deep Underground", "tot_prod": "1,947,164" }, "geometry": { "type": "Point", "coordinates": [ -89.863, 39.206 ] } },
{ "type": "Feature", "properties": { "name": "Viper Mine", "type_": "Deep Underground", "tot_prod": "1,782,322" }, "geometry": { "type": "Point", "coordinates": [ -89.45, 40.004 ] } },
{ "type": "Feature", "properties": { "name": "Mach #1 Mine", "type_": "Deep Underground", "tot_prod": "6,887,728" }, "geometry": { "type": "Point", "coordinates": [ -88.831, 37.839 ] } },
{ "type": "Feature", "properties": { "name": "Prairie Eagle-Underground", "type_": "Deep Underground", "tot_prod": "3,944,857" }, "geometry": { "type": "Point", "coordinates": [ -89.586, 38.071 ] } },
{ "type": "Feature", "properties": { "name": "Wildcat Hills Mine-Underground", "type_": "Deep Underground", "tot_prod": "1,330,804" }, "geometry": { "type": "Point", "coordinates": [ -88.389, 37.774 ] } },
{ "type": "Feature", "properties": { "name": "Mc#1 Mine", "type_": "Deep Underground", "tot_prod": "14,460,951" }, "geometry": { "type": "Point", "coordinates": [ -88.762, 38.027 ] } },
{ "type": "Feature", "properties": { "name": "Lively Grove Mine", "type_": "Deep Underground", "tot_prod": "6,331,873" }, "geometry": { "type": "Point", "coordinates": [ -89.655, 38.283 ] } },
{ "type": "Feature", "properties": { "name": "Mine No. 1", "type_": "Deep Underground", "tot_prod": "6,298,997" }, "geometry": { "type": "Point", "coordinates": [ -88.602, 38.171 ] } },
{ "type": "Feature", "properties": { "name": "Gateway North Mine", "type_": "Deep Underground", "tot_prod": "3,087,530" }, "geometry": { "type": "Point", "coordinates": [ -89.62, 38.189 ] } },
{ "type": "Feature", "properties": { "name": "Gibson Mine", "type_": "Deep Underground", "tot_prod": "880,563" }, "geometry": { "type": "Point", "coordinates": [ -87.694, 38.387 ] } },
{ "type": "Feature", "properties": { "name": "Francisco Underground Pit", "type_": "Deep Underground", "tot_prod": "2,135,200" }, "geometry": { "type": "Point", "coordinates": [ -87.434, 38.338 ] } },
{ "type": "Feature", "properties": { "name": "Carlisle Mine", "type_": "Deep Underground", "tot_prod": "404,555" }, "geometry": { "type": "Point", "coordinates": [ -87.393, 38.944 ] } },
{ "type": "Feature", "properties": { "name": "Gibson South", "type_": "Deep Underground", "tot_prod": "6,996,941" }, "geometry": { "type": "Point", "coordinates": [ -87.559, 38.342 ] } },
{ "type": "Feature", "properties": { "name": "Oaktown Fuels Mine No. 1", "type_": "Deep Underground", "tot_prod": "4,071,835" }, "geometry": { "type": "Point", "coordinates": [ -87.425, 38.856 ] } },
{ "type": "Feature", "properties": { "name": "Oaktown Fuels Mine No. 2", "type_": "Deep Underground", "tot_prod": "2,866,699" }, "geometry": { "type": "Point", "coordinates": [ -87.425, 38.859 ] } },
{ "type": "Feature", "properties": { "name": "Dotiki Mine", "type_": "Deep Underground", "tot_prod": "2,475,504" }, "geometry": { "type": "Point", "coordinates": [ -87.778, 37.453 ] } },
{ "type": "Feature", "properties": { "name": "D-29 Darby Fork", "type_": "Deep Underground", "tot_prod": "469,644" }, "geometry": { "type": "Point", "coordinates": [ -83.011, 36.875 ] } },
{ "type": "Feature", "properties": { "name": "No. 77", "type_": "Deep Underground", "tot_prod": "395,645" }, "geometry": { "type": "Point", "coordinates": [ -83.119, 37.027 ] } },
{ "type": "Feature", "properties": { "name": "Calvary No 81", "type_": "Deep Underground", "tot_prod": "367,371" }, "geometry": { "type": "Point", "coordinates": [ -83.239, 37.119 ] } },
{ "type": "Feature", "properties": { "name": "# 5", "type_": "Deep Underground", "tot_prod": "93,797" }, "geometry": { "type": "Point", "coordinates": [ -82.337, 37.448 ] } },
{ "type": "Feature", "properties": { "name": "#2", "type_": "Deep Underground", "tot_prod": "19,409" }, "geometry": { "type": "Point", "coordinates": [ -82.526, 37.566 ] } },
{ "type": "Feature", "properties": { "name": "Cardinal", "type_": "Deep Underground", "tot_prod": "3,528,289" }, "geometry": { "type": "Point", "coordinates": [ -87.535, 37.405 ] } },
{ "type": "Feature", "properties": { "name": "D-28 Huff Creek", "type_": "Deep Underground", "tot_prod": "190,144" }, "geometry": { "type": "Point", "coordinates": [ -82.964, 36.869 ] } },
{ "type": "Feature", "properties": { "name": "Mine #3", "type_": "Deep Underground", "tot_prod": "35,439" }, "geometry": { "type": "Point", "coordinates": [ -83.891, 36.8 ] } },
{ "type": "Feature", "properties": { "name": "Paradise #9", "type_": "Deep Underground", "tot_prod": "1,128,850" }, "geometry": { "type": "Point", "coordinates": [ -87.21, 37.299 ] } },
{ "type": "Feature", "properties": { "name": "Mine No. 8", "type_": "Deep Underground", "tot_prod": "37,212" }, "geometry": { "type": "Point", "coordinates": [ -82.252, 37.445 ] } },
{ "type": "Feature", "properties": { "name": "No. 8", "type_": "Deep Underground", "tot_prod": "4,401" }, "geometry": { "type": "Point", "coordinates": [ -82.241, 37.444 ] } },
{ "type": "Feature", "properties": { "name": "Blackberry #1", "type_": "Deep Underground", "tot_prod": "33,626" }, "geometry": { "type": "Point", "coordinates": [ -82.224, 37.535 ] } },
{ "type": "Feature", "properties": { "name": "No. 2", "type_": "Deep Underground", "tot_prod": "26,649" }, "geometry": { "type": "Point", "coordinates": [ -82.223, 37.534 ] } },
{ "type": "Feature", "properties": { "name": "D-11 Panther", "type_": "Deep Underground", "tot_prod": "252,497" }, "geometry": { "type": "Point", "coordinates": [ -82.993, 36.94 ] } },
{ "type": "Feature", "properties": { "name": "K-3", "type_": "Deep Underground", "tot_prod": "20,725" }, "geometry": { "type": "Point", "coordinates": [ -83.09, 36.912 ] } },
{ "type": "Feature", "properties": { "name": "D-21", "type_": "Deep Underground", "tot_prod": "96,265" }, "geometry": { "type": "Point", "coordinates": [ -82.996, 36.966 ] } },
{ "type": "Feature", "properties": { "name": "D-2 Beechfork", "type_": "Deep Underground", "tot_prod": "257,774" }, "geometry": { "type": "Point", "coordinates": [ -83.398, 36.983 ] } },
{ "type": "Feature", "properties": { "name": "Mine #5", "type_": "Deep Underground", "tot_prod": "58,966" }, "geometry": { "type": "Point", "coordinates": [ -83.952, 36.756 ] } },
{ "type": "Feature", "properties": { "name": "Alden Resources Harps Creek", "type_": "Deep Underground", "tot_prod": "47,634" }, "geometry": { "type": "Point", "coordinates": [ -83.904, 36.706 ] } },
{ "type": "Feature", "properties": { "name": "E4-1", "type_": "Deep Underground", "tot_prod": "229,537" }, "geometry": { "type": "Point", "coordinates": [ -83.154, 37.222 ] } },
{ "type": "Feature", "properties": { "name": "Mine # 1", "type_": "Deep Underground", "tot_prod": "4,363" }, "geometry": { "type": "Point", "coordinates": [ -82.236, 37.424 ] } },
{ "type": "Feature", "properties": { "name": "D-30 Clover Fork", "type_": "Deep Underground", "tot_prod": "162,512" }, "geometry": { "type": "Point", "coordinates": [ -82.966, 36.87 ] } },
{ "type": "Feature", "properties": { "name": "Mine #15", "type_": "Deep Underground", "tot_prod": "448,569" }, "geometry": { "type": "Point", "coordinates": [ -82.413, 37.554 ] } },
{ "type": "Feature", "properties": { "name": "#1", "type_": "Deep Underground", "tot_prod": "65,623" }, "geometry": { "type": "Point", "coordinates": [ -82.883, 37.406 ] } },
{ "type": "Feature", "properties": { "name": "Cvb No 1", "type_": "Deep Underground", "tot_prod": "279,389" }, "geometry": { "type": "Point", "coordinates": [ -83.039, 36.958 ] } },
{ "type": "Feature", "properties": { "name": "Mine #28", "type_": "Deep Underground", "tot_prod": "299,869" }, "geometry": { "type": "Point", "coordinates": [ -82.542, 37.344 ] } },
{ "type": "Feature", "properties": { "name": "Mine No 5", "type_": "Deep Underground", "tot_prod": "89,825" }, "geometry": { "type": "Point", "coordinates": [ -82.299, 37.315 ] } },
{ "type": "Feature", "properties": { "name": "No. 2", "type_": "Deep Underground", "tot_prod": "14,675" }, "geometry": { "type": "Point", "coordinates": [ -82.212, 37.515 ] } },
{ "type": "Feature", "properties": { "name": "E4-2", "type_": "Deep Underground", "tot_prod": "443,079" }, "geometry": { "type": "Point", "coordinates": [ -83.185, 37.231 ] } },
{ "type": "Feature", "properties": { "name": "Mine #1a", "type_": "Deep Underground", "tot_prod": "90,867" }, "geometry": { "type": "Point", "coordinates": [ -82.362, 37.466 ] } },
{ "type": "Feature", "properties": { "name": "Center Creek Mine", "type_": "Deep Underground", "tot_prod": "68,591" }, "geometry": { "type": "Point", "coordinates": [ -82.308, 37.309 ] } },
{ "type": "Feature", "properties": { "name": "#9a", "type_": "Deep Underground", "tot_prod": "96,889" }, "geometry": { "type": "Point", "coordinates": [ -82.973, 37.203 ] } },
{ "type": "Feature", "properties": { "name": "Redhawk #1", "type_": "Deep Underground", "tot_prod": "330,553" }, "geometry": { "type": "Point", "coordinates": [ -82.733, 37.524 ] } },
{ "type": "Feature", "properties": { "name": "D-5 Mine", "type_": "Deep Underground", "tot_prod": "41,307" }, "geometry": { "type": "Point", "coordinates": [ -83.056, 36.891 ] } },
{ "type": "Feature", "properties": { "name": "No 4", "type_": "Deep Underground", "tot_prod": "77,997" }, "geometry": { "type": "Point", "coordinates": [ -82.317, 37.307 ] } },
{ "type": "Feature", "properties": { "name": "Carnegie Mine", "type_": "Deep Underground", "tot_prod": "9,748" }, "geometry": { "type": "Point", "coordinates": [ -82.316, 37.534 ] } },
{ "type": "Feature", "properties": { "name": "Mine No. 7", "type_": "Deep Underground", "tot_prod": "120,772" }, "geometry": { "type": "Point", "coordinates": [ -82.274, 37.432 ] } },
{ "type": "Feature", "properties": { "name": "River View Mine", "type_": "Deep Underground", "tot_prod": "9,753,472" }, "geometry": { "type": "Point", "coordinates": [ -87.888, 37.743 ] } },
{ "type": "Feature", "properties": { "name": "Orchard Branch Mine No. 89", "type_": "Deep Underground", "tot_prod": "533,473" }, "geometry": { "type": "Point", "coordinates": [ -83.111, 37.172 ] } },
{ "type": "Feature", "properties": { "name": "D-8 Cloverlick", "type_": "Deep Underground", "tot_prod": "145,188" }, "geometry": { "type": "Point", "coordinates": [ -82.978, 36.934 ] } },
{ "type": "Feature", "properties": { "name": "Riveredge Mine", "type_": "Deep Underground", "tot_prod": "1,270,993" }, "geometry": { "type": "Point", "coordinates": [ -87.439, 37.635 ] } },
{ "type": "Feature", "properties": { "name": "Mine No 11", "type_": "Deep Underground", "tot_prod": "62,468" }, "geometry": { "type": "Point", "coordinates": [ -82.297, 37.368 ] } },
{ "type": "Feature", "properties": { "name": "Mine #4", "type_": "Deep Underground", "tot_prod": "1,321,340" }, "geometry": { "type": "Point", "coordinates": [ -82.414, 37.545 ] } },
{ "type": "Feature", "properties": { "name": "Access Energy", "type_": "Deep Underground", "tot_prod": "266,340" }, "geometry": { "type": "Point", "coordinates": [ -82.78, 37.246 ] } },
{ "type": "Feature", "properties": { "name": "Genesis", "type_": "Deep Underground", "tot_prod": "2,378,909" }, "geometry": { "type": "Point", "coordinates": [ -87.067, 37.4 ] } },
{ "type": "Feature", "properties": { "name": "Jarisa Inc. Mine No. 1", "type_": "Deep Underground", "tot_prod": "98,664" }, "geometry": { "type": "Point", "coordinates": [ -82.224, 37.438 ] } },
{ "type": "Feature", "properties": { "name": "Rockhampton #3", "type_": "Deep Underground", "tot_prod": "334,308" }, "geometry": { "type": "Point", "coordinates": [ -83.577, 36.804 ] } },
{ "type": "Feature", "properties": { "name": "Cheyenne Enterprises 9e", "type_": "Deep Underground", "tot_prod": "3,425" }, "geometry": { "type": "Point", "coordinates": [ -82.569, 37.499 ] } },
{ "type": "Feature", "properties": { "name": "Redhawk #6", "type_": "Deep Underground", "tot_prod": "270,306" }, "geometry": { "type": "Point", "coordinates": [ -82.739, 37.53 ] } },
{ "type": "Feature", "properties": { "name": "No. 1", "type_": "Deep Underground", "tot_prod": "98,787" }, "geometry": { "type": "Point", "coordinates": [ -82.652, 37.449 ] } },
{ "type": "Feature", "properties": { "name": "Pride", "type_": "Deep Underground", "tot_prod": "1,451,591" }, "geometry": { "type": "Point", "coordinates": [ -87.052, 37.291 ] } },
{ "type": "Feature", "properties": { "name": "2a", "type_": "Deep Underground", "tot_prod": "15,068" }, "geometry": { "type": "Point", "coordinates": [ -82.661, 37.568 ] } },
{ "type": "Feature", "properties": { "name": "Jennie Branch Mine", "type_": "Deep Underground", "tot_prod": "199,265" }, "geometry": { "type": "Point", "coordinates": [ -83.545, 36.725 ] } },
{ "type": "Feature", "properties": { "name": "Deep Mine No. 1", "type_": "Deep Underground", "tot_prod": "5,745" }, "geometry": { "type": "Point", "coordinates": [ -82.404, 37.39 ] } },
{ "type": "Feature", "properties": { "name": "No.7", "type_": "Deep Underground", "tot_prod": "51,795" }, "geometry": { "type": "Point", "coordinates": [ -82.217, 37.376 ] } },
{ "type": "Feature", "properties": { "name": "Putney Darby Mine #1", "type_": "Deep Underground", "tot_prod": "249,252" }, "geometry": { "type": "Point", "coordinates": [ -83.222, 36.897 ] } },
{ "type": "Feature", "properties": { "name": "Redhawk #7", "type_": "Deep Underground", "tot_prod": "29,780" }, "geometry": { "type": "Point", "coordinates": [ -82.697, 37.569 ] } },
{ "type": "Feature", "properties": { "name": "Mine #1", "type_": "Deep Underground", "tot_prod": "2,305" }, "geometry": { "type": "Point", "coordinates": [ -82.718, 37.513 ] } },
{ "type": "Feature", "properties": { "name": "Toms Fork Mine", "type_": "Deep Underground", "tot_prod": "7,057" }, "geometry": { "type": "Point", "coordinates": [ -83.547, 36.763 ] } },
{ "type": "Feature", "properties": { "name": "Taylor # 1", "type_": "Deep Underground", "tot_prod": "49,252" }, "geometry": { "type": "Point", "coordinates": [ -79.031, 39.521 ] } },
{ "type": "Feature", "properties": { "name": "Casselman Mine", "type_": "Deep Underground", "tot_prod": "386,556" }, "geometry": { "type": "Point", "coordinates": [ -79.202, 39.667 ] } },
{ "type": "Feature", "properties": { "name": "Bull Mountains Mine No 1", "type_": "Deep Underground", "tot_prod": "7,566,480" }, "geometry": { "type": "Point", "coordinates": [ -108.706, 46.447 ] } },
{ "type": "Feature", "properties": { "name": "San Juan Mine 1", "type_": "Deep Underground", "tot_prod": "1,848,018" }, "geometry": { "type": "Point", "coordinates": [ -108.375, 36.85 ] } },
{ "type": "Feature", "properties": { "name": "Hopedale Mine", "type_": "Deep Underground", "tot_prod": "409,560" }, "geometry": { "type": "Point", "coordinates": [ -80.919, 40.347 ] } },
{ "type": "Feature", "properties": { "name": "Century Mine", "type_": "Deep Underground", "tot_prod": "4,785,568" }, "geometry": { "type": "Point", "coordinates": [ -81.01, 39.59 ] } },
{ "type": "Feature", "properties": { "name": "Tusky", "type_": "Deep Underground", "tot_prod": "162,874" }, "geometry": { "type": "Point", "coordinates": [ -81.491, 40.324 ] } },
{ "type": "Feature", "properties": { "name": "Buckingham  Mine", "type_": "Deep Underground", "tot_prod": "897,418" }, "geometry": { "type": "Point", "coordinates": [ -82.065, 39.587 ] } },
{ "type": "Feature", "properties": { "name": "Vail Mine", "type_": "Deep Underground", "tot_prod": "262,732" }, "geometry": { "type": "Point", "coordinates": [ -81.294, 40.212 ] } },
{ "type": "Feature", "properties": { "name": "P8 North", "type_": "Deep Underground", "tot_prod": "206,183" }, "geometry": { "type": "Point", "coordinates": [ -94.547, 35.222 ] } },
{ "type": "Feature", "properties": { "name": "R S & W Drift", "type_": "Deep Underground", "tot_prod": "19,350" }, "geometry": { "type": "Point", "coordinates": [ -76.236, 40.667 ] } },
{ "type": "Feature", "properties": { "name": "N & L Slope", "type_": "Deep Underground", "tot_prod": "4,753" }, "geometry": { "type": "Point", "coordinates": [ -76.651, 40.768 ] } },
{ "type": "Feature", "properties": { "name": "Cumberland Mine", "type_": "Deep Underground", "tot_prod": "6,422,579" }, "geometry": { "type": "Point", "coordinates": [ -79.973, 39.796 ] } },
{ "type": "Feature", "properties": { "name": "Bailey Mine", "type_": "Deep Underground", "tot_prod": "12,735,390" }, "geometry": { "type": "Point", "coordinates": [ -80.473, 39.92 ] } },
{ "type": "Feature", "properties": { "name": "Enlow Fork Mine", "type_": "Deep Underground", "tot_prod": "9,876,324" }, "geometry": { "type": "Point", "coordinates": [ -80.346, 40.075 ] } },
{ "type": "Feature", "properties": { "name": "Darmac No. 2 Mine", "type_": "Deep Underground", "tot_prod": "208,753" }, "geometry": { "type": "Point", "coordinates": [ -79.307, 40.691 ] } },
{ "type": "Feature", "properties": { "name": "No 5 Vein", "type_": "Deep Underground", "tot_prod": "9,208" }, "geometry": { "type": "Point", "coordinates": [ -76.45, 40.587 ] } },
{ "type": "Feature", "properties": { "name": "Dutch Run", "type_": "Deep Underground", "tot_prod": "196,877" }, "geometry": { "type": "Point", "coordinates": [ -79.287, 40.7 ] } },
{ "type": "Feature", "properties": { "name": "Quecreek #1 Mine", "type_": "Deep Underground", "tot_prod": "133,747" }, "geometry": { "type": "Point", "coordinates": [ -79.083, 40.089 ] } },
{ "type": "Feature", "properties": { "name": "Parkwood Mine", "type_": "Deep Underground", "tot_prod": "226,968" }, "geometry": { "type": "Point", "coordinates": [ -79.328, 40.661 ] } },
{ "type": "Feature", "properties": { "name": "Logansport Mine", "type_": "Deep Underground", "tot_prod": "9,496" }, "geometry": { "type": "Point", "coordinates": [ -79.582, 40.733 ] } },
{ "type": "Feature", "properties": { "name": "7 Ft Slope", "type_": "Deep Underground", "tot_prod": "3,116" }, "geometry": { "type": "Point", "coordinates": [ -76.129, 40.736 ] } },
{ "type": "Feature", "properties": { "name": "Madison Mine", "type_": "Deep Underground", "tot_prod": "701,501" }, "geometry": { "type": "Point", "coordinates": [ -78.923, 40.404 ] } },
{ "type": "Feature", "properties": { "name": "Lowry Mine", "type_": "Deep Underground", "tot_prod": "12,894" }, "geometry": { "type": "Point", "coordinates": [ -79.123, 40.572 ] } },
{ "type": "Feature", "properties": { "name": "Cresson", "type_": "Deep Underground", "tot_prod": "22,828" }, "geometry": { "type": "Point", "coordinates": [ -78.606, 40.443 ] } },
{ "type": "Feature", "properties": { "name": "4 West Mine", "type_": "Deep Underground", "tot_prod": "206,723" }, "geometry": { "type": "Point", "coordinates": [ -80.011, 39.757 ] } },
{ "type": "Feature", "properties": { "name": "Barrett Mine", "type_": "Deep Underground", "tot_prod": "344,055" }, "geometry": { "type": "Point", "coordinates": [ -78.89, 40.559 ] } },
{ "type": "Feature", "properties": { "name": "Penfield Mine", "type_": "Deep Underground", "tot_prod": "24,725" }, "geometry": { "type": "Point", "coordinates": [ -78.611, 41.234 ] } },
{ "type": "Feature", "properties": { "name": "Mine 78", "type_": "Deep Underground", "tot_prod": "674,161" }, "geometry": { "type": "Point", "coordinates": [ -78.775, 40.283 ] } },
{ "type": "Feature", "properties": { "name": "Knob Creek", "type_": "Deep Underground", "tot_prod": "145,254" }, "geometry": { "type": "Point", "coordinates": [ -79.332, 40.525 ] } },
{ "type": "Feature", "properties": { "name": "Heilwood", "type_": "Deep Underground", "tot_prod": "244,994" }, "geometry": { "type": "Point", "coordinates": [ -78.909, 40.615 ] } },
{ "type": "Feature", "properties": { "name": "Williamstown Mine #1", "type_": "Deep Underground", "tot_prod": "13,216" }, "geometry": { "type": "Point", "coordinates": [ -76.587, 40.595 ] } },
{ "type": "Feature", "properties": { "name": "Kocjancic", "type_": "Deep Underground", "tot_prod": "293,010" }, "geometry": { "type": "Point", "coordinates": [ -78.763, 41.274 ] } },
{ "type": "Feature", "properties": { "name": "Brush Valley", "type_": "Deep Underground", "tot_prod": "693,995" }, "geometry": { "type": "Point", "coordinates": [ -79.109, 40.531 ] } },
{ "type": "Feature", "properties": { "name": "Long Run", "type_": "Deep Underground", "tot_prod": "3,740" }, "geometry": { "type": "Point", "coordinates": [ -79.617, 40.864 ] } },
{ "type": "Feature", "properties": { "name": "No 13 Slope", "type_": "Deep Underground", "tot_prod": "9,381" }, "geometry": { "type": "Point", "coordinates": [ -76.647, 40.778 ] } },
{ "type": "Feature", "properties": { "name": "Harmony Mine", "type_": "Deep Underground", "tot_prod": "171,039" }, "geometry": { "type": "Point", "coordinates": [ -78.711, 40.779 ] } },
{ "type": "Feature", "properties": { "name": "Coral-Graceton", "type_": "Deep Underground", "tot_prod": "2,716" }, "geometry": { "type": "Point", "coordinates": [ -79.166, 40.5 ] } },
{ "type": "Feature", "properties": { "name": "Horning Deep Mine", "type_": "Deep Underground", "tot_prod": "32,616" }, "geometry": { "type": "Point", "coordinates": [ -78.948, 39.989 ] } },
{ "type": "Feature", "properties": { "name": "Buck Mountain Vein", "type_": "Deep Underground", "tot_prod": "3,274" }, "geometry": { "type": "Point", "coordinates": [ -76.764, 40.988 ] } },
{ "type": "Feature", "properties": { "name": "Acosta Deep Mine", "type_": "Deep Underground", "tot_prod": "375,379" }, "geometry": { "type": "Point", "coordinates": [ -79.05, 40.104 ] } },
{ "type": "Feature", "properties": { "name": "Slope #2", "type_": "Deep Underground", "tot_prod": "9,049" }, "geometry": { "type": "Point", "coordinates": [ -76.248, 40.727 ] } },
{ "type": "Feature", "properties": { "name": "Crooked Creek Mine", "type_": "Deep Underground", "tot_prod": "704,415" }, "geometry": { "type": "Point", "coordinates": [ -79.238, 40.671 ] } },
{ "type": "Feature", "properties": { "name": "Maple Springs Mine", "type_": "Deep Underground", "tot_prod": "289,405" }, "geometry": { "type": "Point", "coordinates": [ -78.959, 40.202 ] } },
{ "type": "Feature", "properties": { "name": "Cass #1 Mine", "type_": "Deep Underground", "tot_prod": "81,445" }, "geometry": { "type": "Point", "coordinates": [ -79.074, 39.854 ] } },
{ "type": "Feature", "properties": { "name": "North Fork", "type_": "Deep Underground", "tot_prod": "343,147" }, "geometry": { "type": "Point", "coordinates": [ -79.062, 40.127 ] } },
{ "type": "Feature", "properties": { "name": "Harvey Mine", "type_": "Deep Underground", "tot_prod": "4,980,569" }, "geometry": { "type": "Point", "coordinates": [ -80.421, 39.969 ] } },
{ "type": "Feature", "properties": { "name": "Broad Mountain Slope", "type_": "Deep Underground", "tot_prod": "286" }, "geometry": { "type": "Point", "coordinates": [ -76.457, 40.592 ] } },
{ "type": "Feature", "properties": { "name": "Cooper Ridge Deep Mine", "type_": "Deep Underground", "tot_prod": "173,801" }, "geometry": { "type": "Point", "coordinates": [ -83.899, 36.541 ] } },
{ "type": "Feature", "properties": { "name": "Emery Mine", "type_": "Deep Underground", "tot_prod": "441,876" }, "geometry": { "type": "Point", "coordinates": [ -111.235, 38.873 ] } },
{ "type": "Feature", "properties": { "name": "Sufco", "type_": "Deep Underground", "tot_prod": "4,904,476" }, "geometry": { "type": "Point", "coordinates": [ -111.417, 38.913 ] } },
{ "type": "Feature", "properties": { "name": "Skyline Mine #3", "type_": "Deep Underground", "tot_prod": "3,602,708" }, "geometry": { "type": "Point", "coordinates": [ -111.233, 39.677 ] } },
{ "type": "Feature", "properties": { "name": "Dugout Canyon Mine", "type_": "Deep Underground", "tot_prod": "549,863" }, "geometry": { "type": "Point", "coordinates": [ -110.544, 39.683 ] } },
{ "type": "Feature", "properties": { "name": "Lila Canyon", "type_": "Deep Underground", "tot_prod": "2,630,631" }, "geometry": { "type": "Point", "coordinates": [ -110.341, 39.426 ] } },
{ "type": "Feature", "properties": { "name": "Castle Valley Mine #3", "type_": "Deep Underground", "tot_prod": "103,345" }, "geometry": { "type": "Point", "coordinates": [ -111.094, 39.408 ] } },
{ "type": "Feature", "properties": { "name": "Castle Valley Mine #4", "type_": "Deep Underground", "tot_prod": "892,271" }, "geometry": { "type": "Point", "coordinates": [ -111.094, 39.408 ] } },
{ "type": "Feature", "properties": { "name": "Meridian #2", "type_": "Deep Underground", "tot_prod": "108,112" }, "geometry": { "type": "Point", "coordinates": [ -81.836, 37.253 ] } },
{ "type": "Feature", "properties": { "name": "Buchanan Mine #1", "type_": "Deep Underground", "tot_prod": "5,188,441" }, "geometry": { "type": "Point", "coordinates": [ -81.987, 37.161 ] } },
{ "type": "Feature", "properties": { "name": "D-18", "type_": "Deep Underground", "tot_prod": "115,590" }, "geometry": { "type": "Point", "coordinates": [ -81.839, 37.25 ] } },
{ "type": "Feature", "properties": { "name": "D-16", "type_": "Deep Underground", "tot_prod": "100,320" }, "geometry": { "type": "Point", "coordinates": [ -81.853, 37.276 ] } },
{ "type": "Feature", "properties": { "name": "No 6", "type_": "Deep Underground", "tot_prod": "57,216" }, "geometry": { "type": "Point", "coordinates": [ -82.236, 37.316 ] } },
{ "type": "Feature", "properties": { "name": "Hiram Fork", "type_": "Deep Underground", "tot_prod": "21,928" }, "geometry": { "type": "Point", "coordinates": [ -82.002, 37.349 ] } },
{ "type": "Feature", "properties": { "name": "D-15", "type_": "Deep Underground", "tot_prod": "239" }, "geometry": { "type": "Point", "coordinates": [ -82.151, 37.191 ] } },
{ "type": "Feature", "properties": { "name": "D-10 Dorchester", "type_": "Deep Underground", "tot_prod": "53,766" }, "geometry": { "type": "Point", "coordinates": [ -82.785, 36.966 ] } },
{ "type": "Feature", "properties": { "name": "D-6 North Fork", "type_": "Deep Underground", "tot_prod": "214,477" }, "geometry": { "type": "Point", "coordinates": [ -82.837, 36.969 ] } },
{ "type": "Feature", "properties": { "name": "Deep Mine 25", "type_": "Deep Underground", "tot_prod": "910" }, "geometry": { "type": "Point", "coordinates": [ -82.529, 37.135 ] } },
{ "type": "Feature", "properties": { "name": "No. 2", "type_": "Deep Underground", "tot_prod": "243,029" }, "geometry": { "type": "Point", "coordinates": [ -82.721, 37.059 ] } },
{ "type": "Feature", "properties": { "name": "D-7 Osaka", "type_": "Deep Underground", "tot_prod": "267,709" }, "geometry": { "type": "Point", "coordinates": [ -82.807, 36.879 ] } },
{ "type": "Feature", "properties": { "name": "No. 5", "type_": "Deep Underground", "tot_prod": "4,440" }, "geometry": { "type": "Point", "coordinates": [ -82.202, 37.296 ] } },
{ "type": "Feature", "properties": { "name": "No 10", "type_": "Deep Underground", "tot_prod": "36,385" }, "geometry": { "type": "Point", "coordinates": [ -82.261, 37.044 ] } },
{ "type": "Feature", "properties": { "name": "D-17", "type_": "Deep Underground", "tot_prod": "167,534" }, "geometry": { "type": "Point", "coordinates": [ -81.784, 37.239 ] } },
{ "type": "Feature", "properties": { "name": "Deep Mine 41", "type_": "Deep Underground", "tot_prod": "1,522,940" }, "geometry": { "type": "Point", "coordinates": [ -82.388, 37.096 ] } },
{ "type": "Feature", "properties": { "name": "Lower Mill", "type_": "Deep Underground", "tot_prod": "33,356" }, "geometry": { "type": "Point", "coordinates": [ -82.071, 37.315 ] } },
{ "type": "Feature", "properties": { "name": "Omm", "type_": "Deep Underground", "tot_prod": "41,228" }, "geometry": { "type": "Point", "coordinates": [ -82.396, 37.107 ] } },
{ "type": "Feature", "properties": { "name": "Deep Mine 44", "type_": "Deep Underground", "tot_prod": "462,158" }, "geometry": { "type": "Point", "coordinates": [ -82.374, 37.059 ] } },
{ "type": "Feature", "properties": { "name": "Hackney Creek Hagy", "type_": "Deep Underground", "tot_prod": "512,325" }, "geometry": { "type": "Point", "coordinates": [ -82.194, 37.367 ] } },
{ "type": "Feature", "properties": { "name": "Tilley", "type_": "Deep Underground", "tot_prod": "165,262" }, "geometry": { "type": "Point", "coordinates": [ -82.255, 37.316 ] } },
{ "type": "Feature", "properties": { "name": "No 10", "type_": "Deep Underground", "tot_prod": "111,844" }, "geometry": { "type": "Point", "coordinates": [ -82.463, 36.974 ] } },
{ "type": "Feature", "properties": { "name": "Mine #24", "type_": "Deep Underground", "tot_prod": "2,796" }, "geometry": { "type": "Point", "coordinates": [ -82.453, 36.972 ] } },
{ "type": "Feature", "properties": { "name": "Harrison County Mine", "type_": "Deep Underground", "tot_prod": "7,215,143" }, "geometry": { "type": "Point", "coordinates": [ -80.362, 39.403 ] } },
{ "type": "Feature", "properties": { "name": "Marion County Mine", "type_": "Deep Underground", "tot_prod": "6,133,349" }, "geometry": { "type": "Point", "coordinates": [ -80.291, 39.608 ] } },
{ "type": "Feature", "properties": { "name": "Ohio County Mine", "type_": "Deep Underground", "tot_prod": "6,509,414" }, "geometry": { "type": "Point", "coordinates": [ -80.727, 40.202 ] } },
{ "type": "Feature", "properties": { "name": "Marshall County Mine", "type_": "Deep Underground", "tot_prod": "11,433,840" }, "geometry": { "type": "Point", "coordinates": [ -80.486, 39.478 ] } },
{ "type": "Feature", "properties": { "name": "Road Fork #51 Mine", "type_": "Deep Underground", "tot_prod": "515,989" }, "geometry": { "type": "Point", "coordinates": [ -81.569, 37.576 ] } },
{ "type": "Feature", "properties": { "name": "Pinnacle Mine", "type_": "Deep Underground", "tot_prod": "1,016,246" }, "geometry": { "type": "Point", "coordinates": [ -81.492, 37.547 ] } },
{ "type": "Feature", "properties": { "name": "Monongalia County Mine", "type_": "Deep Underground", "tot_prod": "4,404,054" }, "geometry": { "type": "Point", "coordinates": [ -80.357, 39.756 ] } },
{ "type": "Feature", "properties": { "name": "Sentinel Mine", "type_": "Deep Underground", "tot_prod": "1,169,514" }, "geometry": { "type": "Point", "coordinates": [ -80.05, 39.2 ] } },
{ "type": "Feature", "properties": { "name": "Maple Eagle No. 1 Mine", "type_": "Deep Underground", "tot_prod": "481,139" }, "geometry": { "type": "Point", "coordinates": [ -81.334, 38.036 ] } },
{ "type": "Feature", "properties": { "name": "Beckley Pocahontas Mine", "type_": "Deep Underground", "tot_prod": "1,017,800" }, "geometry": { "type": "Point", "coordinates": [ -81.263, 37.771 ] } },
{ "type": "Feature", "properties": { "name": "American Eagle Mine", "type_": "Deep Underground", "tot_prod": "1,516,885" }, "geometry": { "type": "Point", "coordinates": [ -81.469, 38.166 ] } },
{ "type": "Feature", "properties": { "name": "Crawdad No 1 Mine", "type_": "Deep Underground", "tot_prod": "127,036" }, "geometry": { "type": "Point", "coordinates": [ -80.0, 39.707 ] } },
{ "type": "Feature", "properties": { "name": "Wyoming No 2", "type_": "Deep Underground", "tot_prod": "256,422" }, "geometry": { "type": "Point", "coordinates": [ -81.61, 37.603 ] } },
{ "type": "Feature", "properties": { "name": "Sewell Mine B", "type_": "Deep Underground", "tot_prod": "84,556" }, "geometry": { "type": "Point", "coordinates": [ -81.624, 37.506 ] } },
{ "type": "Feature", "properties": { "name": "Gateway Eagle Mine", "type_": "Deep Underground", "tot_prod": "368,390" }, "geometry": { "type": "Point", "coordinates": [ -81.592, 37.794 ] } },
{ "type": "Feature", "properties": { "name": "No 1", "type_": "Deep Underground", "tot_prod": "29,355" }, "geometry": { "type": "Point", "coordinates": [ -81.546, 37.409 ] } },
{ "type": "Feature", "properties": { "name": "Brushy Eagle", "type_": "Deep Underground", "tot_prod": "256,080" }, "geometry": { "type": "Point", "coordinates": [ -81.483, 37.917 ] } },
{ "type": "Feature", "properties": { "name": "Kingston No 1", "type_": "Deep Underground", "tot_prod": "183,583" }, "geometry": { "type": "Point", "coordinates": [ -81.32, 38.007 ] } },
{ "type": "Feature", "properties": { "name": "Morgan Camp Mine", "type_": "Deep Underground", "tot_prod": "354,422" }, "geometry": { "type": "Point", "coordinates": [ -80.226, 38.768 ] } },
{ "type": "Feature", "properties": { "name": "Mine No. 32", "type_": "Deep Underground", "tot_prod": "47,832" }, "geometry": { "type": "Point", "coordinates": [ -81.687, 37.329 ] } },
{ "type": "Feature", "properties": { "name": "Stonecoal Branch Mine No. 2", "type_": "Deep Underground", "tot_prod": "603,058" }, "geometry": { "type": "Point", "coordinates": [ -81.752, 37.711 ] } },
{ "type": "Feature", "properties": { "name": "North Eagle Mine", "type_": "Deep Underground", "tot_prod": "805,504" }, "geometry": { "type": "Point", "coordinates": [ -81.56, 38.154 ] } },
{ "type": "Feature", "properties": { "name": "No 57 Mine", "type_": "Deep Underground", "tot_prod": "51,101" }, "geometry": { "type": "Point", "coordinates": [ -81.48, 37.465 ] } },
{ "type": "Feature", "properties": { "name": "Jerry Fork Eagle", "type_": "Deep Underground", "tot_prod": "549,688" }, "geometry": { "type": "Point", "coordinates": [ -80.991, 38.299 ] } },
{ "type": "Feature", "properties": { "name": "Aracoma Alma Mine #1", "type_": "Deep Underground", "tot_prod": "778,051" }, "geometry": { "type": "Point", "coordinates": [ -81.898, 37.816 ] } },
{ "type": "Feature", "properties": { "name": "Hernshaw Mine", "type_": "Deep Underground", "tot_prod": "352,525" }, "geometry": { "type": "Point", "coordinates": [ -81.909, 37.82 ] } },
{ "type": "Feature", "properties": { "name": "Ruby Energy", "type_": "Deep Underground", "tot_prod": "1,054,878" }, "geometry": { "type": "Point", "coordinates": [ -82.204, 37.744 ] } },
{ "type": "Feature", "properties": { "name": "Tunnel Ridge Mine", "type_": "Deep Underground", "tot_prod": "6,807,214" }, "geometry": { "type": "Point", "coordinates": [ -80.982, 40.135 ] } },
{ "type": "Feature", "properties": { "name": "Affinity Mine", "type_": "Deep Underground", "tot_prod": "862,872" }, "geometry": { "type": "Point", "coordinates": [ -81.228, 37.711 ] } },
{ "type": "Feature", "properties": { "name": "No 58", "type_": "Deep Underground", "tot_prod": "193,214" }, "geometry": { "type": "Point", "coordinates": [ -81.488, 37.427 ] } },
{ "type": "Feature", "properties": { "name": "Kingston No. 2", "type_": "Deep Underground", "tot_prod": "417,412" }, "geometry": { "type": "Point", "coordinates": [ -81.31, 37.966 ] } },
{ "type": "Feature", "properties": { "name": "No. 8", "type_": "Deep Underground", "tot_prod": "37,293" }, "geometry": { "type": "Point", "coordinates": [ -81.958, 37.645 ] } },
{ "type": "Feature", "properties": { "name": "Mountain View Mine", "type_": "Deep Underground", "tot_prod": "2,280,219" }, "geometry": { "type": "Point", "coordinates": [ -79.382, 39.187 ] } },
{ "type": "Feature", "properties": { "name": "Mountaineer Ii Mine", "type_": "Deep Underground", "tot_prod": "1,763,202" }, "geometry": { "type": "Point", "coordinates": [ -81.799, 37.912 ] } },
{ "type": "Feature", "properties": { "name": "Slip Ridge Cedar Grove Mine", "type_": "Deep Underground", "tot_prod": "462,538" }, "geometry": { "type": "Point", "coordinates": [ -81.456, 37.915 ] } },
{ "type": "Feature", "properties": { "name": "Horse Creek Eagle", "type_": "Deep Underground", "tot_prod": "497,293" }, "geometry": { "type": "Point", "coordinates": [ -81.317, 37.889 ] } },
{ "type": "Feature", "properties": { "name": "Allen Powellton Mine", "type_": "Deep Underground", "tot_prod": "773,755" }, "geometry": { "type": "Point", "coordinates": [ -81.308, 37.897 ] } },
{ "type": "Feature", "properties": { "name": "Mine No. 7", "type_": "Deep Underground", "tot_prod": "75,787" }, "geometry": { "type": "Point", "coordinates": [ -81.907, 37.459 ] } },
{ "type": "Feature", "properties": { "name": "Black Oak Mine", "type_": "Deep Underground", "tot_prod": "333,792" }, "geometry": { "type": "Point", "coordinates": [ -81.565, 37.813 ] } },
{ "type": "Feature", "properties": { "name": "Mountaineer Pocahontas No 1 Mi", "type_": "Deep Underground", "tot_prod": "227,070" }, "geometry": { "type": "Point", "coordinates": [ -80.646, 38.037 ] } },
{ "type": "Feature", "properties": { "name": "Leer Mine", "type_": "Deep Underground", "tot_prod": "3,444,773" }, "geometry": { "type": "Point", "coordinates": [ -79.959, 39.331 ] } },
{ "type": "Feature", "properties": { "name": "Caretta #3 Mine", "type_": "Deep Underground", "tot_prod": "91,071" }, "geometry": { "type": "Point", "coordinates": [ -81.68, 37.324 ] } },
{ "type": "Feature", "properties": { "name": "Mine No 2", "type_": "Deep Underground", "tot_prod": "99,206" }, "geometry": { "type": "Point", "coordinates": [ -81.688, 37.334 ] } },
{ "type": "Feature", "properties": { "name": "Panther Eagle Mine", "type_": "Deep Underground", "tot_prod": "242,535" }, "geometry": { "type": "Point", "coordinates": [ -81.488, 37.926 ] } },
{ "type": "Feature", "properties": { "name": "Powellton #1 Mine", "type_": "Deep Underground", "tot_prod": "1,108,055" }, "geometry": { "type": "Point", "coordinates": [ -81.66, 37.792 ] } },
{ "type": "Feature", "properties": { "name": "Slabcamp", "type_": "Deep Underground", "tot_prod": "1,070,511" }, "geometry": { "type": "Point", "coordinates": [ -81.374, 38.276 ] } },
{ "type": "Feature", "properties": { "name": "Winchester Ug Mine", "type_": "Deep Underground", "tot_prod": "498,287" }, "geometry": { "type": "Point", "coordinates": [ -81.464, 38.058 ] } },
{ "type": "Feature", "properties": { "name": "Peerless Rachel Mine", "type_": "Deep Underground", "tot_prod": "760,893" }, "geometry": { "type": "Point", "coordinates": [ -81.578, 38.127 ] } },
{ "type": "Feature", "properties": { "name": "Mine No. 39", "type_": "Deep Underground", "tot_prod": "401,447" }, "geometry": { "type": "Point", "coordinates": [ -81.625, 37.333 ] } },
{ "type": "Feature", "properties": { "name": "Mine No 3", "type_": "Deep Underground", "tot_prod": "42,331" }, "geometry": { "type": "Point", "coordinates": [ -81.688, 37.335 ] } },
{ "type": "Feature", "properties": { "name": "Alma No 1", "type_": "Deep Underground", "tot_prod": "1,008,110" }, "geometry": { "type": "Point", "coordinates": [ -82.31, 37.751 ] } },
{ "type": "Feature", "properties": { "name": "Washington Mine", "type_": "Deep Underground", "tot_prod": "461,204" }, "geometry": { "type": "Point", "coordinates": [ -81.776, 37.762 ] } },
{ "type": "Feature", "properties": { "name": "Blue Creek No. 2 Mine", "type_": "Deep Underground", "tot_prod": "613,294" }, "geometry": { "type": "Point", "coordinates": [ -81.46, 38.353 ] } },
{ "type": "Feature", "properties": { "name": "Blue Creek No. 1 Ug Mine", "type_": "Deep Underground", "tot_prod": "794,495" }, "geometry": { "type": "Point", "coordinates": [ -81.46, 38.353 ] } },
{ "type": "Feature", "properties": { "name": "Lower War Eagle", "type_": "Deep Underground", "tot_prod": "825,143" }, "geometry": { "type": "Point", "coordinates": [ -81.727, 37.734 ] } },
{ "type": "Feature", "properties": { "name": "Horse Creek No. 2", "type_": "Deep Underground", "tot_prod": "9,518" }, "geometry": { "type": "Point", "coordinates": [ -81.856, 37.458 ] } },
{ "type": "Feature", "properties": { "name": "Cedar Grove #2 Mine", "type_": "Deep Underground", "tot_prod": "549,354" }, "geometry": { "type": "Point", "coordinates": [ -81.895, 37.816 ] } },
{ "type": "Feature", "properties": { "name": "Coalburg Mine", "type_": "Deep Underground", "tot_prod": "359,926" }, "geometry": { "type": "Point", "coordinates": [ -82.196, 37.797 ] } },
{ "type": "Feature", "properties": { "name": "Mine No. 42", "type_": "Deep Underground", "tot_prod": "96,994" }, "geometry": { "type": "Point", "coordinates": [ -81.448, 37.4 ] } },
{ "type": "Feature", "properties": { "name": "Eagle #3 Mine", "type_": "Deep Underground", "tot_prod": "222,895" }, "geometry": { "type": "Point", "coordinates": [ -81.491, 37.774 ] } },
{ "type": "Feature", "properties": { "name": "Sewell Mine R", "type_": "Deep Underground", "tot_prod": "64,839" }, "geometry": { "type": "Point", "coordinates": [ -81.709, 37.322 ] } },
{ "type": "Feature", "properties": { "name": "Flying Eagle", "type_": "Deep Underground", "tot_prod": "2,120" }, "geometry": { "type": "Point", "coordinates": [ -81.554, 37.757 ] } },
{ "type": "Feature", "properties": { "name": "Eagle Seam Deep Mine", "type_": "Deep Underground", "tot_prod": "539,184" }, "geometry": { "type": "Point", "coordinates": [ -81.694, 37.748 ] } },
{ "type": "Feature", "properties": { "name": "Mine No. 43", "type_": "Deep Underground", "tot_prod": "252,707" }, "geometry": { "type": "Point", "coordinates": [ -81.474, 37.396 ] } },
{ "type": "Feature", "properties": { "name": "Edm No. 1 Mine", "type_": "Deep Underground", "tot_prod": "71,580" }, "geometry": { "type": "Point", "coordinates": [ -81.582, 37.481 ] } },
{ "type": "Feature", "properties": { "name": "Muddy Bridge", "type_": "Deep Underground", "tot_prod": "314,203" }, "geometry": { "type": "Point", "coordinates": [ -81.771, 37.744 ] } },
{ "type": "Feature", "properties": { "name": "Buffalo Deep Mine", "type_": "Deep Underground", "tot_prod": "270,837" }, "geometry": { "type": "Point", "coordinates": [ -81.824, 37.791 ] } },
{ "type": "Feature", "properties": { "name": "Berwind Deep Mine", "type_": "Deep Underground", "tot_prod": "80,923" }, "geometry": { "type": "Point", "coordinates": [ -81.666, 37.214 ] } },
{ "type": "Feature", "properties": { "name": "No. 2 Gas", "type_": "Deep Underground", "tot_prod": "259,144" }, "geometry": { "type": "Point", "coordinates": [ -81.756, 37.706 ] } },
{ "type": "Feature", "properties": { "name": "Beech Mountain Mine", "type_": "Deep Underground", "tot_prod": "6,744" }, "geometry": { "type": "Point", "coordinates": [ -80.128, 38.684 ] } },
{ "type": "Feature", "properties": { "name": "Bridger Underground Coal Mine", "type_": "Deep Underground", "tot_prod": "2,210,433" }, "geometry": { "type": "Point", "coordinates": [ -108.82, 41.818 ] } }
]
}
