{
"type": "FeatureCollection",
"crs": { "type": "name", "properties": { "name": "urn:ogc:def:crs:OGC:1.3:CRS84" } },
                                                                                
"features": [
{ "type": "Feature", "properties": { "Country": "United States", "title": "Rattlesnake Road Wind Farm", "image": "<img src='cascadia/images/Wind/RattlesnakeRoadWindFarm.jpg'>", "text3": "Owner: Arlington Wind Power Project LLC", "Operator": null, "Latitude": 45.716700, "Longitude": -120.200800, "City": "Arlington", "County": "Gilliam", "StateProv": "Oregon", "ZipCode": "97812", "Address": "72650 Rattlesnake Road", "text2": "Maximum output: 103 megawatts", "Renew_MW": 103, "text1": "Primary Source: Wind", "PrimRenew": "Wind", "Coal_MW": 0, "NG_MW": 0, "Crude_MW": 0, "Other_MW": 0, "Hydro_MW": 0, "HydroPS_MW": 0, "Nuclear_MW": 0, "Solar_MW": 0, "Wind_MW": 103, "Geo_MW": 0, "Bio_MW": 0, "Tidal_MW": 0, "Source": "http://rattlesnakeroadwindfarm.com", "Period": 201705, "orig_ogc_f": 0 }, "geometry": { "type": "Point", "coordinates": [ -120.2008, 45.7167 ] } },

{ "type": "Feature", "properties": { "Country": "United States", "title": "Big Horn Wind Project", "image": "<img src='cascadia/images/Wind/BigHornWindFarm.jpg'>", "text3": "Owner: Avangrid Renewables LLC", "Operator": null, "Latitude": 45.887700, "Longitude": -120.289600, "City": "Bickelton", "County": "Klickitat", "StateProv": "Washington", "ZipCode": "99322", "Address": "1 Big Horn Rd", "text2": "Maximum output: 199 megawatts", "Renew_MW": 199, "text1": "Primary Source: Wind", "PrimRenew": "Wind", "Coal_MW": 0, "NG_MW": 0, "Crude_MW": 0, "Other_MW": 0, "Hydro_MW": 0, "HydroPS_MW": 0, "Nuclear_MW": 0, "Solar_MW": 0, "Wind_MW": 199, "Geo_MW": 0, "Bio_MW": 0, "Tidal_MW": 0, "Source": "http://www.avangridrenewables.us/cs_bighorn.html", "Period": 201705, "orig_ogc_f": 3 }, "geometry": { "type": "Point", "coordinates": [ -120.2896, 45.8877 ] } },

{ "type": "Feature", "properties": { "Country": "United States", "title": "Biglow Canyon Wind Farm", "image": "<img src='cascadia/images/Wind/BiglowCanyonWindFarm.jpg'>", "text3": "Owner: Portland General Electric Co", "Operator": null, "Latitude": 45.653745, "Longitude": -120.603414, "City": "Wasco", "County": "Sherman", "StateProv": "Oregon", "ZipCode": "97065", "Address": "96900 Herin Lane", "text2": "Maximum output: 449.700000 megawatts", "Renew_MW": 449.700000, "text1": "Primary Source: Wind", "PrimRenew": "Wind", "Coal_MW": 0, "NG_MW": 0, "Crude_MW": 0, "Other_MW": 0, "Hydro_MW": 0, "HydroPS_MW": 0, "Nuclear_MW": 0, "Solar_MW": 0, "Wind_MW": 449.700000, "Geo_MW": 0, "Bio_MW": 0, "Tidal_MW": 0, "Source": "https://www.portlandgeneral.com/our-company/energy-strategy/how-we-generate-electricity/our-wind-farms", "Period": 201705, "orig_ogc_f": 4 }, "geometry": { "type": "Point", "coordinates": [ -120.60341, 45.65375 ] } },

{ "type": "Feature", "properties": { "Country": "United States", "title": "Elkhorn Valley Wind Farm", "image": "<img src='cascadia/images/Wind/ElkhornValleyWindFarm.jpg'>", "text3": "Owner: Telocaset Wind Power Partners", "Operator": null, "Latitude": 45.085221, "Longitude": -117.816273, "City": "Union", "County": "Union", "StateProv": "Oregon", "ZipCode": "97883", "Address": "53777 OR Highway 237", "text2": "Maximum output: 100.700000 megawatts", "Renew_MW": 100.700000, "text1": "Primary Source: Wind", "PrimRenew": "Wind", "Coal_MW": 0, "NG_MW": 0, "Crude_MW": 0, "Other_MW": 0, "Hydro_MW": 0, "HydroPS_MW": 0, "Nuclear_MW": 0, "Solar_MW": 0, "Wind_MW": 100.700000, "Geo_MW": 0, "Bio_MW": 0, "Tidal_MW": 0, "Source": "http://elkhornvalleywindfarm.com/", "Period": 201705, "orig_ogc_f": 22 }, "geometry": { "type": "Point", "coordinates": [ -117.81627, 45.08522 ] } },

{ "type": "Feature", "properties": { "Country": "United States", "title": "FPL Energy Vansycle LLC (OR)", "image": "<img src='cascadia/images/Wind/.jpg'>", "text3": "Owner: FPL Energy Vansycle LLC", "Operator": null, "Latitude": 46.012790, "Longitude": -118.816246, "City": "Touchet", "County": "Umatilla", "StateProv": "Oregon", "ZipCode": "97835", "Address": "356 Touchet Gardena Road", "text2": "Maximum output: 122.800000 megawatts", "Renew_MW": 122.800000, "text1": "Primary Source: Wind", "PrimRenew": "Wind", "Coal_MW": 0, "NG_MW": 0, "Crude_MW": 0, "Other_MW": 0, "Hydro_MW": 0, "HydroPS_MW": 0, "Nuclear_MW": 0, "Solar_MW": 0, "Wind_MW": 122.800000, "Geo_MW": 0, "Bio_MW": 0, "Tidal_MW": 0, "Source": "EIA-860, EIA-860M and EIA-923", "Period": 201705, "orig_ogc_f": 26 }, "geometry": { "type": "Point", "coordinates": [ -118.81625, 46.01279 ] } },

{ "type": "Feature", "properties": { "Country": "United States", "title": "FPL Energy Vansycle LLC (WA)", "image": "<img src='cascadia/images/Wind/TouchetWindFarm.jpg'>", "text3": "Owner: FPL Energy Vansycle LLC", "Operator": null, "Latitude": 46.060000, "Longitude": -118.917000, "City": "Touchet", "County": "Walla Walla", "StateProv": "Washington", "ZipCode": "99360", "Address": "356 Touchet Gardena Road", "text2": "Maximum output: 176.900000 megawatts", "Renew_MW": 176.900000, "text1": "Primary Source: Wind", "PrimRenew": "Wind", "Coal_MW": 0, "NG_MW": 0, "Crude_MW": 0, "Other_MW": 0, "Hydro_MW": 0, "HydroPS_MW": 0, "Nuclear_MW": 0, "Solar_MW": 0, "Wind_MW": 176.900000, "Geo_MW": 0, "Bio_MW": 0, "Tidal_MW": 0, "Source": "EIA-860, EIA-860M and EIA-923", "Period": 201705, "orig_ogc_f": 27 }, "geometry": { "type": "Point", "coordinates": [ -118.917, 46.06 ] } },

{ "type": "Feature", "properties": { "Country": "United States", "title": "Goshen Phase II", "image": "<img src='cascadia/images/Wind/GoshenPhaseIIWindFarm.jpg'>", "text3": "Owner: AE Power Services LLC", "Operator": null, "Latitude": 43.467057, "Longitude": -111.836381, "City": "Idaho Falls", "County": "Bonneville", "StateProv": "Idaho", "ZipCode": "83427", "Address": "444 Bone Road", "text2": "Maximum output: 124.500000 megawatts", "Renew_MW": 124.500000, "text1": "Primary Source: Wind", "PrimRenew": "Wind", "Coal_MW": 0, "NG_MW": 0, "Crude_MW": 0, "Other_MW": 0, "Hydro_MW": 0, "HydroPS_MW": 0, "Nuclear_MW": 0, "Solar_MW": 0, "Wind_MW": 124.500000, "Geo_MW": 0, "Bio_MW": 0, "Tidal_MW": 0, "Source": "http://www.rrengineers.com/portfolio/energy-environmental/goshen-ii-wind-farm-9000-acres/", "Period": 201705, "orig_ogc_f": 33 }, "geometry": { "type": "Point", "coordinates": [ -111.83638, 43.46706 ] } },

{ "type": "Feature", "properties": { "Country": "United States", "title": "Hay Canyon Wind Power LLC", "image": "<img src='cascadia/images/Wind/HayCanyonWindFarm.jpg'>", "text3": "Owner: Avangrid Renewables LLC", "Operator": null, "Latitude": 45.520000, "Longitude": -120.574400, "City": "Moro", "County": "Sherman", "StateProv": "Oregon", "ZipCode": "97039", "Address": "98100 Baseline Lane", "text2": "Maximum output: 100.800000 megawatts", "Renew_MW": 100.800000, "text1": "Primary Source: Wind", "PrimRenew": "Wind", "Coal_MW": 0, "NG_MW": 0, "Crude_MW": 0, "Other_MW": 0, "Hydro_MW": 0, "HydroPS_MW": 0, "Nuclear_MW": 0, "Solar_MW": 0, "Wind_MW": 100.800000, "Geo_MW": 0, "Bio_MW": 0, "Tidal_MW": 0, "Source": "EIA-860, EIA-860M and EIA-923", "Period": 201705, "orig_ogc_f": 37 }, "geometry": { "type": "Point", "coordinates": [ -120.5744, 45.52 ] } },

{ "type": "Feature", "properties": { "Country": "United States", "title": "Hopkins Ridge Wind Facility", "image": "<img src='cascadia/images/Wind/HopkinsRidgeWindFacility.jpg'>", "text3": "Owner: Puget Sound Energy Inc", "Operator": null, "Latitude": 46.421100, "Longitude": -117.833100, "City": "Dayton", "County": "Columbia", "StateProv": "Washington", "ZipCode": "99328", "Address": "431 Gwinn Road", "text2": "Maximum output: 156.600000 megawatts", "Renew_MW": 156.600000, "text1": "Primary Source: Wind", "PrimRenew": "Wind", "Coal_MW": 0, "NG_MW": 0, "Crude_MW": 0, "Other_MW": 0, "Hydro_MW": 0, "HydroPS_MW": 0, "Nuclear_MW": 0, "Solar_MW": 0, "Wind_MW": 156.600000, "Geo_MW": 0, "Bio_MW": 0, "Tidal_MW": 0, "Source": "https://pse.com/aboutpse/Facilities/Pages/Hopkins-Ridge.aspx", "Period": 201705, "orig_ogc_f": 41 }, "geometry": { "type": "Point", "coordinates": [ -117.8331, 46.4211 ] } },

{ "type": "Feature", "properties": { "Country": "United States", "title": "Horseshoe Bend Wind LLC", "image": "<img src='cascadia/images/Wind/HorseshoeBendWindFarm.jpg'>", "text3": "Owner: Caithness Shepherds Flat LLC", "Operator": null, "Latitude": 45.585550, "Longitude": -120.008249, "City": "Arlington", "County": "Gilliam", "StateProv": "Oregon", "ZipCode": "97812", "Address": "6889 Eight Mile Road", "text2": "Maximum output: 290 megawatts", "Renew_MW": 290, "text1": "Primary Source: Wind", "PrimRenew": "Wind", "Coal_MW": 0, "NG_MW": 0, "Crude_MW": 0, "Other_MW": 0, "Hydro_MW": 0, "HydroPS_MW": 0, "Nuclear_MW": 0, "Solar_MW": 0, "Wind_MW": 290, "Geo_MW": 0, "Bio_MW": 0, "Tidal_MW": 0, "Source": "http://www.caithnessshepherdsflat.com/project-facts/shepherds-flat-south/", "Period": 201705, "orig_ogc_f": 42 }, "geometry": { "type": "Point", "coordinates": [ -120.00825, 45.58555 ] } },

{ "type": "Feature", "properties": { "Country": "United States", "title": "Juniper Canyon I Wind Project", "image": "<img src='cascadia/images/Wind/JuniperCanyon.jpg'>", "text3": "Owner: Avangrid Renewables LLC", "Operator": null, "Latitude": 45.921500, "Longitude": -120.235500, "City": "Bickleton", "County": "Klickitat", "StateProv": "Washington", "ZipCode": "99322", "Address": "1050 East Rd", "text2": "Maximum output: 151.200000 megawatts", "Renew_MW": 151.200000, "text1": "Primary Source: Wind", "PrimRenew": "Wind", "Coal_MW": 0, "NG_MW": 0, "Crude_MW": 0, "Other_MW": 0, "Hydro_MW": 0, "HydroPS_MW": 0, "Nuclear_MW": 0, "Solar_MW": 0, "Wind_MW": 151.200000, "Geo_MW": 0, "Bio_MW": 0, "Tidal_MW": 0, "Source": "http://www.b-e-f.org/project-portfolio/juniper-canyon-wind-farm/", "Period": 201705, "orig_ogc_f": 47 }, "geometry": { "type": "Point", "coordinates": [ -120.2355, 45.9215 ] } },

{ "type": "Feature", "properties": { "Country": "United States", "title": "Klondike Windpower III", "image": "<img src='cascadia/images/Wind/KlondikeWindFarm.jpg'>", "text3": "Owner: Avangrid Renewables LLC", "Operator": null, "Latitude": 45.583600, "Longitude": -120.504200, "City": "Wasco", "County": "Sherman", "StateProv": "Oregon", "ZipCode": "97065", "Address": "99436 Klondike Lane", "text2": "Maximum output: 297.500000 megawatts", "Renew_MW": 297.500000, "text1": "Primary Source: Wind", "PrimRenew": "Wind", "Coal_MW": 0, "NG_MW": 0, "Crude_MW": 0, "Other_MW": 0, "Hydro_MW": 0, "HydroPS_MW": 0, "Nuclear_MW": 0, "Solar_MW": 0, "Wind_MW": 297.500000, "Geo_MW": 0, "Bio_MW": 0, "Tidal_MW": 0, "Source": "http://www.avangridrenewables.us/cs_klondike.html", "Period": 201705, "orig_ogc_f": 51 }, "geometry": { "type": "Point", "coordinates": [ -120.5042, 45.5836 ] } },

{ "type": "Feature", "properties": { "Country": "United States", "title": "Leaning Juniper", "image": "<img src='cascadia/images/Wind/LeaningJuniper.jpg'>", "text3": "Owner: PacifiCorp", "Operator": null, "Latitude": 45.652457, "Longitude": -120.209783, "City": "Arlington", "County": "Gilliam", "StateProv": "Oregon", "ZipCode": "97812", "Address": "72459 Rattlesnake Rd.", "text2": "Maximum output: 100.500000 megawatts", "Renew_MW": 100.500000, "text1": "Primary Source: Wind", "PrimRenew": "Wind", "Coal_MW": 0, "NG_MW": 0, "Crude_MW": 0, "Other_MW": 0, "Hydro_MW": 0, "HydroPS_MW": 0, "Nuclear_MW": 0, "Solar_MW": 0, "Wind_MW": 100.500000, "Geo_MW": 0, "Bio_MW": 0, "Tidal_MW": 0, "Source": "http://www.pacificorp.com/es/re/lj1.html", "Period": 201705, "orig_ogc_f": 53 }, "geometry": { "type": "Point", "coordinates": [ -120.20978, 45.65246 ] } },

{ "type": "Feature", "properties": { "Country": "United States", "title": "Leaning Juniper Wind Power II", "image": "<img src='cascadia/images/Wind/LeaningJuniper.jpg'>", "text3": "Owner: Avangrid Renewables LLC", "Operator": null, "Latitude": 45.651000, "Longitude": -120.259800, "City": "Arlington", "County": "Gilliam", "StateProv": "Oregon", "ZipCode": "97812", "Address": "72766 Rattlesnake Road", "text2": "Maximum output: 201 megawatts", "Renew_MW": 201, "text1": "Primary Source: Wind", "PrimRenew": "Wind", "Coal_MW": 0, "NG_MW": 0, "Crude_MW": 0, "Other_MW": 0, "Hydro_MW": 0, "HydroPS_MW": 0, "Nuclear_MW": 0, "Solar_MW": 0, "Wind_MW": 201, "Geo_MW": 0, "Bio_MW": 0, "Tidal_MW": 0, "Source": "EIA-860, EIA-860M and EIA-923", "Period": 201705, "orig_ogc_f": 54 }, "geometry": { "type": "Point", "coordinates": [ -120.2598, 45.651 ] } },

{ "type": "Feature", "properties": { "Country": "United States", "title": "Lower Snake River Wind Energy Project", "image": "<img src='cascadia/images/Wind/LowerSnakeRiver.jpg'>", "text3": "Owner: Puget Sound Energy Inc", "Operator": null, "Latitude": 46.524167, "Longitude": -117.821666, "City": "Pomeroy", "County": "Garfield", "StateProv": "Washington", "ZipCode": "99347", "Address": "39 Falling Springs Rd", "text2": "Maximum output: 342.700000 megawatts", "Renew_MW": 342.700000, "text1": "Primary Source: Wind", "PrimRenew": "Wind", "Coal_MW": 0, "NG_MW": 0, "Crude_MW": 0, "Other_MW": 0, "Hydro_MW": 0, "HydroPS_MW": 0, "Nuclear_MW": 0, "Solar_MW": 0, "Wind_MW": 342.700000, "Geo_MW": 0, "Bio_MW": 0, "Tidal_MW": 0, "Source": "https://pse.com/aboutpse/Facilities/Pages/Lower-Snake-River.aspx", "Period": 201705, "orig_ogc_f": 61 }, "geometry": { "type": "Point", "coordinates": [ -117.82167, 46.52417 ] } },

{ "type": "Feature", "properties": { "Country": "United States", "title": "Marengo Wind Plant", "image": "<img src='cascadia/images/Wind/MarengoWindPlant.jpg'>", "text3": "Owner: PacifiCorp", "Operator": null, "Latitude": 46.374700, "Longitude": -117.777200, "City": "Dayton", "County": "Columbia", "StateProv": "Washington", "ZipCode": "99328", "Address": "King Rd and Covello Rd", "text2": "Maximum output: 210.600000 megawatts", "Renew_MW": 210.600000, "text1": "Primary Source: Wind", "PrimRenew": "Wind", "Coal_MW": 0, "NG_MW": 0, "Crude_MW": 0, "Other_MW": 0, "Hydro_MW": 0, "HydroPS_MW": 0, "Nuclear_MW": 0, "Solar_MW": 0, "Wind_MW": 210.600000, "Geo_MW": 0, "Bio_MW": 0, "Tidal_MW": 0, "Source": "http://www.pacificorp.com/es/re/mi.html", "Period": 201705, "orig_ogc_f": 64 }, "geometry": { "type": "Point", "coordinates": [ -117.7772, 46.3747 ] } },

{ "type": "Feature", "properties": { "Country": "United States", "title": "Meadow Creek Project", "image": "<img src='cascadia/images/Wind/MeadowCreek.jpg'>", "text3": "Owner: Ridgeline Energy LLC", "Operator": null, "Latitude": 43.524429, "Longitude": -111.803921, "City": "Idaho Falls", "County": "Bonneville", "StateProv": "Idaho", "ZipCode": "83401", "Address": "2244 North 115th E", "text2": "Maximum output: 119.700000 megawatts", "Renew_MW": 119.700000, "text1": "Primary Source: Wind", "PrimRenew": "Wind", "Coal_MW": 0, "NG_MW": 0, "Crude_MW": 0, "Other_MW": 0, "Hydro_MW": 0, "HydroPS_MW": 0, "Nuclear_MW": 0, "Solar_MW": 0, "Wind_MW": 119.700000, "Geo_MW": 0, "Bio_MW": 0, "Tidal_MW": 0, "Source": "https://www.wanzek.com/project/meadow-creek/", "Period": 201705, "orig_ogc_f": 67 }, "geometry": { "type": "Point", "coordinates": [ -111.80392, 43.52443 ] } },

{ "type": "Feature", "properties": { "Country": "United States", "title": "North Hurlburt Wind Farm", "image": "<img src='cascadia/images/Wind/NorthHurlburtWindFarm.jpg'>", "text3": "Owner: Caithness Shepherds Flat LLC", "Operator": null, "Latitude": 45.731611, "Longitude": -120.083466, "City": "Arlington", "County": "Gilliam", "StateProv": "Oregon", "ZipCode": "97812", "Address": "76288 Rhea Road", "text2": "Maximum output: 265 megawatts", "Renew_MW": 265, "text1": "Primary Source: Wind", "PrimRenew": "Wind", "Coal_MW": 0, "NG_MW": 0, "Crude_MW": 0, "Other_MW": 0, "Hydro_MW": 0, "HydroPS_MW": 0, "Nuclear_MW": 0, "Solar_MW": 0, "Wind_MW": 265, "Geo_MW": 0, "Bio_MW": 0, "Tidal_MW": 0, "Source": "http://www.caithnessshepherdsflat.com/project-facts/shepherds-flat-north/", "Period": 201705, "orig_ogc_f": 71 }, "geometry": { "type": "Point", "coordinates": [ -120.08347, 45.73161 ] } },

{ "type": "Feature", "properties": { "Country": "United States", "title": "Palouse Wind Project", "image": "<img src='cascadia/images/Wind/PalouseWindProject.jpg'>", "Owner": "Novatus Energy", "Operator": null, "Latitude": 47.155833, "Longitude": -117.364444, "City": "Oakesdale", "County": "Whitman", "StateProv": "Washington", "ZipCode": "99170", "Address": "1171 Baird Road", "text2": "Maximum output: 105.300000 megawatts", "Renew_MW": 105.300000, "text1": "Primary Source: Wind", "PrimRenew": "Wind", "Coal_MW": 0, "NG_MW": 0, "Crude_MW": 0, "Other_MW": 0, "Hydro_MW": 0, "HydroPS_MW": 0, "Nuclear_MW": 0, "Solar_MW": 0, "Wind_MW": 105.300000, "Geo_MW": 0, "Bio_MW": 0, "Tidal_MW": 0, "Source": "https://www.novatusenergy.com/wind-project/palouse-wind-project/", "Period": 201705, "orig_ogc_f": 75 }, "geometry": { "type": "Point", "coordinates": [ -117.36444, 47.15583 ] } },

{ "type": "Feature", "properties": { "Country": "United States", "title": "Kittitas Valley Wind Farm", "image": "<img src='cascadia/images/Wind/KittitasValleyWindFarm.jpg'>", "text3": "Owner: Sagebrush Power Partners LLC", "Operator": null, "Latitude": 47.135600, "Longitude": -120.687200, "City": "Ellensburg", "County": "Kittitas", "StateProv": "Washington", "ZipCode": "98922", "Address": "3701 Hayward Rd", "text2": "Maximum output: 100.700000 megawatts", "Renew_MW": 100.700000, "text1": "Primary Source: Wind", "PrimRenew": "Wind", "Coal_MW": 0, "NG_MW": 0, "Crude_MW": 0, "Other_MW": 0, "Hydro_MW": 0, "HydroPS_MW": 0, "Nuclear_MW": 0, "Solar_MW": 0, "Wind_MW": 100.700000, "Geo_MW": 0, "Bio_MW": 0, "Tidal_MW": 0, "Source": "http://kittitasvalleywindfarm.com/", "Period": 201705, "orig_ogc_f": 87 }, "geometry": { "type": "Point", "coordinates": [ -120.6872, 47.1356 ] } },

{ "type": "Feature", "properties": { "Country": "United States", "title": "South Hurlburt Wind LLC", "image": "<img src='cascadia/images/Wind/ShepherdsFlatCentral.jpg'>", "text3": "Owner: Caithness Shepherds Flat LLC", "Operator": null, "Latitude": 45.706262, "Longitude": -120.079987, "City": "Arlington", "County": "Gilliam", "StateProv": "Oregon", "ZipCode": "97812", "Address": "76287 Rhea Road", "text2": "Maximum output: 290 megawatts", "Renew_MW": 290, "text1": "Primary Source: Wind", "PrimRenew": "Wind", "Coal_MW": 0, "NG_MW": 0, "Crude_MW": 0, "Other_MW": 0, "Hydro_MW": 0, "HydroPS_MW": 0, "Nuclear_MW": 0, "Solar_MW": 0, "Wind_MW": 290, "Geo_MW": 0, "Bio_MW": 0, "Tidal_MW": 0, "Source": "http://www.caithnessshepherdsflat.com/project-facts/shepherds-flat-central/", "Period": 201705, "orig_ogc_f": 88 }, "geometry": { "type": "Point", "coordinates": [ -120.07999, 45.70626 ] } },

{ "type": "Feature", "properties": { "Country": "United States", "title": "Tucannon River Wind Farm", "image": "<img src='cascadia/images/Wind/TucannonRiverWindFarm.jpg'>", "text3": "Owner: Portland General Electric Co", "Operator": null, "Latitude": 46.421111, "Longitude": -118.026944, "City": "Dayton", "County": "Columbia", "StateProv": "Washington", "ZipCode": "99328", "Address": "100 Blue Norther Lane", "text2": "Maximum output: 266.800000 megawatts", "Renew_MW": 266.800000, "text1": "Primary Source: Wind", "PrimRenew": "Wind", "Coal_MW": 0, "NG_MW": 0, "Crude_MW": 0, "Other_MW": 0, "Hydro_MW": 0, "HydroPS_MW": 0, "Nuclear_MW": 0, "Solar_MW": 0, "Wind_MW": 266.800000, "Geo_MW": 0, "Bio_MW": 0, "Tidal_MW": 0, "Source": "https://www.portlandgeneral.com/our-company/energy-strategy/how-we-generate-electricity/our-wind-farms", "Period": 201705, "orig_ogc_f": 94 }, "geometry": { "type": "Point", "coordinates": [ -118.02694, 46.42111 ] } },

{ "type": "Feature", "properties": { "Country": "United States", "title": "Tuolumne Wind Project", "image": "<img src='cascadia/images/Wind/TuolumneWindProject.jpg'>", "text3": "Owner: Turlock Irrigation District", "Operator": null, "Latitude": 45.879700, "Longitude": -120.807200, "City": "Goldendale", "County": "Klickitat", "StateProv": "Washington", "ZipCode": "98620", "Address": "S-14 and Hwy 97", "text2": "Maximum output: 136.300000 megawatts", "Renew_MW": 136.300000, "text1": "Primary Source: Wind", "PrimRenew": "Wind", "Coal_MW": 0, "NG_MW": 0, "Crude_MW": 0, "Other_MW": 0, "Hydro_MW": 0, "HydroPS_MW": 0, "Nuclear_MW": 0, "Solar_MW": 0, "Wind_MW": 136.300000, "Geo_MW": 0, "Bio_MW": 0, "Tidal_MW": 0, "Source": "https://www.tid.org/power/generation-facilities/wind/", "Period": 201705, "orig_ogc_f": 95 }, "geometry": { "type": "Point", "coordinates": [ -120.8072, 45.8797 ] } },

{ "type": "Feature", "properties": { "Country": "United States", "title": "White Creek Wind Project", "image": "<img src='cascadia/images/Wind/WhiteCreekWindProject.jpg'>", "text3": "Owner: White Creek Wind 1 LLC", "Operator": null, "Latitude": 45.815467, "Longitude": -120.341883, "City": "Roosevelt", "County": "Klickitat", "StateProv": "Washington", "ZipCode": "99356", "Address": "1131 Dot Road", "text2": "Maximum output: 204 megawatts", "Renew_MW": 204, "text1": "Primary Source: Wind", "PrimRenew": "Wind", "Coal_MW": 0, "NG_MW": 0, "Crude_MW": 0, "Other_MW": 0, "Hydro_MW": 0, "HydroPS_MW": 0, "Nuclear_MW": 0, "Solar_MW": 0, "Wind_MW": 204, "Geo_MW": 0, "Bio_MW": 0, "Tidal_MW": 0, "Source": "http://www.wcwind1.com/", "Period": 201705, "orig_ogc_f": 99 }, "geometry": { "type": "Point", "coordinates": [ -120.34188, 45.81547 ] } },

{ "type": "Feature", "properties": { "Country": "United States", "title": "Wild Horse Wind and Solar Facility", "image": "<img src='cascadia/images/Wind/WildHorse.jpg'>", "text3": "Owner: Puget Sound Energy Inc", "Operator": null, "Latitude": 47.036269, "Longitude": -120.206494, "City": "Ellensburg", "County": "Kittitas", "StateProv": "Washington", "ZipCode": "98926", "Address": "25901 Vantage Hwy", "text2": "Maximum output: 273.100000 megawatts", "Renew_MW": 273.100000, "text1": "Primary Source: Wind", "PrimRenew": "Wind", "Coal_MW": 0, "NG_MW": 0, "Crude_MW": 0, "Other_MW": 0, "Hydro_MW": 0, "HydroPS_MW": 0, "Nuclear_MW": 0, "Solar_MW": 0.500000, "Wind_MW": 272.600000, "Geo_MW": 0, "Bio_MW": 0, "Tidal_MW": 0, "Source": "https://pse.com/inyourcommunity/ToursandRecreation/WildHorse/Pages/default.aspx", "Period": 201705, "orig_ogc_f": 101 }, "geometry": { "type": "Point", "coordinates": [ -120.20649, 47.03627 ] } },

{ "type": "Feature", "properties": { "Country": "United States", "title": "Windy Flats Wind Project", "image": "<img src='cascadia/images/Wind/WindyFlats.jpg'>", "text3": "Owner: Windy Flats Partners LLC", "Operator": null, "Latitude": 45.726900, "Longitude": -120.833900, "City": "Centerville", "County": "Klickitat", "StateProv": "Washington", "ZipCode": "98613", "Address": "24 Stringstreet Rd", "text2": "Maximum output: 262.200000 megawatts", "Renew_MW": 262.200000, "text1": "Primary Source: Wind", "PrimRenew": "Wind", "Coal_MW": 0, "NG_MW": 0, "Crude_MW": 0, "Other_MW": 0, "Hydro_MW": 0, "HydroPS_MW": 0, "Nuclear_MW": 0, "Solar_MW": 0, "Wind_MW": 262.200000, "Geo_MW": 0, "Bio_MW": 0, "Tidal_MW": 0, "Source": "https://en.wikipedia.org/wiki/Windy_Point/Windy_Flats", "Period": 201705, "orig_ogc_f": 102 }, "geometry": { "type": "Point", "coordinates": [ -120.8339, 45.7269 ] } }
]
}
